~VERSION INFORMATION
 VERS.                          2.0   : CWLS LOG ASCII STANDARD - VERSION 2.0
 WRAP.                          NO    : ONE LINE PER DEPTH STEP
#
~Well Information Section
#MNEM     .UNIT     DATA                DESCRIPTION
#-----    -----     --------            --------------
 STRT     .M        359.0000            : START DEPTH
 STOP     .M        3300.0000           : END DEPTH
 STEP     .M        0.1000              : INCREMENT DEPTH
 NULL     .         -999.2500           : NULL VALUE
 COMP     .                              :
 WELL     .         KTB-1               : WELL NAME
 EKB      .M        47.3000             : KELLY BUSHING ELEVATION
 EGL      .M        0.0000              : GROUND LEVEL ELEVATION
 EPD      .M        0.0000              : PERMANENT DATUM ELEVATION
 FLD      .                              :
 LOC      . X = 554114.2800 Y = 9205184.3100: WELL LOCATION
 PROV     .                              :
 SRVC     .                              :
 PROV     .                              :
 DATE     .                              :
 API      .                              :
#
~Curve Information Section
#MNEM     .UNIT               Curve #DESCRIPTION
#-----    -----               ----   --------------
 DEPTH    .M                  : 1     Name = Domain Curve - Type = DEPTH
 RHOB     .g/cc               : 2     Name = Density_1 - Type = Density
 GR       .gapi               : 3     Name = Gamma Ray_1 - Type = Gamma Ray
 NPHI     .v/v                : 4     Name = Neutron Porosity_1 - Type = Neutron Porosity
 DT       .m/s                : 5     Name = P-wave_1 - Type = P-wave
 PHIE  .fraction           : 6     Name = PHIE - Type = Porosity
 SW  .0.Sw               : 7     Name = SW - Type = Water Saturatio
 VCL  .fraction           : 8     Name = VCL - Type = Volumetric
~A (ASCII LOG DATA)
# ...
 3170.6001          2.3463         15.6329          0.1668       4217.1733          0.2188          1.0000          0.0886
 3170.7000          2.3497         15.4020          0.1677       4230.7363          0.2168          1.0000          0.0830
 3170.8000          2.3525         15.2080          0.1696       4228.7817          0.2152          1.0000          0.0782
 3170.9001          2.3517         15.1064          0.1724       4200.9648          0.2158          1.0000          0.0758
 3171.0000          2.3520         15.0603          0.1737       4159.3091          0.2156          1.0000          0.0746
 3171.1001          2.3489         15.0326          0.1727       4114.9263          0.2175          1.0000          0.0740
 3171.2000          2.3406         14.9956          0.1694       4084.2634          0.2225          1.0000          0.0731
 3171.3000          2.3423         14.8848          0.1670       4085.8127          0.2216          1.0000          0.0704
 3171.4001          2.3446         14.8666          0.1670       4108.6699          0.2202          1.0000          0.0699
 3171.5000          2.3390         14.9771          0.1713       4156.4619          0.2235          1.0000          0.0726
 3171.6001          2.3312         14.9771          0.1718       4211.5620          0.2282          1.0000          0.0726
 3171.7000          2.3215         14.8663          0.1742       4256.6206          0.2342          1.0000          0.0699
 3171.8000          2.3226         14.9217          0.1737       4298.1211          0.2335          1.0000          0.0713
 3171.9001          2.3194         15.2735          0.1716       4334.8267          0.2353          1.0000          0.0798
 3172.0000          2.3216         15.6052          0.1713       4371.8232          0.2338          1.0000          0.0879
 3172.1001          2.3215         15.6421          0.1713       4412.6782          0.2338          1.0000          0.0888
 3172.2000          2.3306         15.6698          0.1697       4455.2998          0.2283          1.0000          0.0895
 3172.3000          2.3389         15.7806          0.1668       4487.3018          0.2232          1.0000          0.0922
 3172.4001          2.3481         15.7156          0.1637       4501.2437          0.2177          1.0000          0.0906
 3172.5000          2.3521         15.5405          0.1615       4465.5547          0.2153          1.0000          0.0864
 3172.6001          2.3589         15.3927          0.1598       4375.2119          0.2113          1.0000          0.0827
 3172.7000          2.3655         15.3373          0.1578       4284.1841          0.2073          1.0000          0.0814
 3172.8000          2.3767         15.3188          0.1554       4205.5591          0.2005          1.0000          0.0809
 3172.9001          2.3867         15.3470          0.1534       4195.2695          0.1944          1.0000          0.0816
 3173.0000          2.3965         15.5497          0.1496       4257.8276          0.1884          1.0000          0.0866
 3173.1001          2.4015         15.7806          0.1476       4337.5488          0.1853          1.0000          0.0922
 3173.2000          2.4045         15.8176          0.1448       4434.3247          0.1834          1.0000          0.0931
 3173.3000          2.4064         15.7529          0.1433       4512.1265          0.1823          1.0000          0.0915
 3173.4001          2.3939         15.8734          0.1473       4554.2119          0.1898          1.0000          0.0945
 3173.5000          2.3939         16.0300          0.1495       4560.9829          0.1898          1.0000          0.0983
 3173.6001          2.3888         15.9654          0.1551       4518.6484          0.1929          1.0000          0.0967
 3173.7000          2.3853         15.8361          0.1614       4420.6011          0.1951          1.0000          0.0936
 3173.8000          2.3782         15.9654          0.1655       4313.2178          0.1993          1.0000          0.0967
 3173.9001          2.3801         16.5113          0.1656       4232.0229          0.1979          1.0000          0.1100
 3174.0000          2.3774         16.9351          0.1645       4191.1890          0.1993          1.0000          0.1204
 3174.1001          2.3804         16.9166          0.1617       4213.5005          0.1975          1.0000          0.1199
 3174.2000          2.3918         16.9721          0.1565       4285.9014          0.1906          1.0000          0.1213
 3174.3000          2.3969         17.1106          0.1532       4388.7690          0.1874          1.0000          0.1246
 3174.4001          2.3986         16.9989          0.1497       4498.7637          0.1865          1.0000          0.1219
 3174.5000          2.4038         16.6303          0.1477       4578.7559          0.1835          1.0000          0.1129
 3174.6001          2.4002         16.0947          0.1470       4583.6514          0.1859          1.0000          0.0999
 3174.7000          2.3971         15.8176          0.1474       4542.4268          0.1879          1.0000          0.0931
 3174.8000          2.4011         15.7252          0.1474       4481.9902          0.1855          1.0000          0.0909
 3174.9001          2.4076         15.3551          0.1476       4440.8989          0.1818          1.0000          0.0818
 3175.0000          2.4123         15.0603          0.1453       4460.6860          0.1790          1.0000          0.0746
 3175.1001          2.4204         15.1803          0.1403       4509.8833          0.1741          1.0000          0.0776
 3175.2000          2.4253         15.4205          0.1395       4576.3774          0.1710          1.0000          0.0834
 3175.3000          2.4253         15.4482          0.1368       4617.5244          0.1710          1.0000          0.0841
 3175.4001          2.4093         15.5142          0.1375       4618.3032          0.1807          1.0000          0.0857
 3175.5000          2.3972         16.0947          0.1420       4590.7485          0.1877          1.0000          0.0999
 3175.6001          2.3861         16.8704          0.1451       4536.4707          0.1941          1.0000          0.1188
 3175.7000          2.3713         17.3969          0.1489       4498.5874          0.2028          1.0000          0.1316
 3175.8000          2.3627         17.6555          0.1514       4467.9175          0.2079          1.0000          0.1379
 3175.9001          2.3604         17.7391          0.1549       4446.4106          0.2093          1.0000          0.1400
 3176.0000          2.3610         17.9418          0.1572       4436.4741          0.2088          1.0000          0.1449
 3176.1001          2.3523         17.9880          0.1604       4417.6348          0.2141          1.0000          0.1460
 3176.2000          2.3469         17.5447          0.1624       4404.6558          0.2176          1.0000          0.1352
 3176.3000          2.3504         17.1383          0.1632       4402.8682          0.2156          1.0000          0.1253
 3176.4001          2.3510         17.0180          0.1623       4425.1655          0.2153          1.0000          0.1224
 3176.5000          2.3490         16.8797          0.1596       4457.2026          0.2166          1.0000          0.1190
 3176.6001          2.3495         16.7966          0.1571       4480.2642          0.2163          1.0000          0.1170
 3176.7000          2.3523         17.0367          0.1569       4476.3691          0.2145          1.0000          0.1228
 3176.8000          2.3582         17.2953          0.1562       4439.4795          0.2108          1.0000          0.1292
 3176.9001          2.3615         17.1466          0.1551       4405.1367          0.2089          1.0000          0.1255
 3177.0000          2.3558         16.7596          0.1563       4396.0420          0.2125          1.0000          0.1161
 3177.1001          2.3544         16.3994          0.1540       4428.4624          0.2135          1.0000          0.1073
