~VERSION INFORMATION
 VERS.                          2.0   : CWLS LOG ASCII STANDARD - VERSION 2.0
 WRAP.                          NO    : ONE LINE PER DEPTH STEP
#
~Well Information Section
#MNEM     .UNIT     DATA                DESCRIPTION
#-----    -----     --------            --------------
 STRT     .M        359.0000            : START DEPTH
 STOP     .M        3300.0000           : END DEPTH
 STEP     .M        0.1000              : INCREMENT DEPTH
 NULL     .         -999.2500           : NULL VALUE
 COMP     .                              :
 WELL     .         KTB-1               : WELL NAME
 EKB      .M        47.3000             : KELLY BUSHING ELEVATION
 EGL      .M        0.0000              : GROUND LEVEL ELEVATION
 EPD      .M        0.0000              : PERMANENT DATUM ELEVATION
 FLD      .                              :
 LOC      . X = 554114.2800 Y = 9205184.3100: WELL LOCATION
 PROV     .                              :
 SRVC     .                              :
 PROV     .                              :
 DATE     .                              :
 API      .                              :
#
~Curve Information Section
#MNEM     .UNIT               Curve #DESCRIPTION
#-----    -----               ----   --------------
 DEPTH    .M                  : 1     Name = Domain Curve - Type = DEPTH
 RHOB     .g/cc               : 2     Name = Density_1 - Type = Density
 GR       .gapi               : 3     Name = Gamma Ray_1 - Type = Gamma Ray
 NPHI     .v/v                : 4     Name = Neutron Porosity_1 - Type = Neutron Porosity
 DT       .m/s                : 5     Name = P-wave_1 - Type = P-wave
 PHIE  .fraction           : 6     Name = PHIE - Type = Porosity
 SW  .0.Sw               : 7     Name = SW - Type = Water Saturatio
 VCL  .fraction           : 8     Name = VCL - Type = Volumetric
~A (ASCII LOG DATA)
# ...
 2985.8000          2.3579         17.4246          0.1755       4457.6978          0.2110          1.0000          0.1323
 2985.9001          2.3557         17.8127          0.1749       4467.6519          0.2121          1.0000          0.1418
 2986.0000          2.3582         17.8956          0.1740       4479.4678          0.2106          1.0000          0.1438
 2986.1001          2.3597         17.9418          0.1718       4482.2407          0.2096          1.0000          0.1449
 2986.2000          2.3661         17.9233          0.1715       4453.6206          0.2058          1.0000          0.1445
 2986.3000          2.3652         17.7663          0.1737       4410.6924          0.2064          1.0000          0.1406
 2986.4001          2.3672         17.5630          0.1762       4359.3408          0.2053          1.0000          0.1357
 2986.5000          2.3598         17.4985          0.1787       4320.3950          0.2098          1.0000          0.1341
 2986.6001          2.3596         17.6370          0.1802       4308.2798          0.2098          1.0000          0.1375
 2986.7000          2.3536         17.6186          0.1792       4307.5669          0.2135          1.0000          0.1370
 2986.8000          2.3515         17.4523          0.1801       4323.4287          0.2148          1.0000          0.1330
 2986.9001          2.3551         17.4062          0.1784       4334.1729          0.2127          1.0000          0.1319
 2987.0000          2.3597         17.4246          0.1778       4341.0576          0.2099          1.0000          0.1323
 2987.1001          2.3603         17.5354          0.1813       4348.0864          0.2095          1.0000          0.1350
 2987.2000          2.3568         17.5909          0.1801       4347.4355          0.2116          1.0000          0.1364
 2987.3000          2.3521         17.3877          0.1824       4343.9844          0.2145          1.0000          0.1314
 2987.4001          2.3463         17.3882          0.1849       4325.1064          0.2180          1.0000          0.1314
 2987.5000          2.3377         17.6001          0.1810       4291.2290          0.2231          1.0000          0.1366
 2987.6001          2.3326         17.4523          0.1800       4254.0718          0.2244          0.9816          0.1330
 2987.7000          2.3360         17.1383          0.1777       4231.5229          0.2204          0.9670          0.1253
 2987.8000          2.3439         17.0921          0.1725       4234.3389          0.2143          0.9499          0.1242
 2987.9001          2.3522         17.3235          0.1681       4268.4702          0.2069          0.9262          0.1298
 2988.0000          2.3665         17.5262          0.1589       4336.4756          0.1967          0.9071          0.1348
 2988.1001          2.3874         17.4339          0.1589       4430.9346          0.1840          0.9002          0.1325
 2988.2000          2.4155         17.4246          0.1530       4547.9302          0.1689          0.9148          0.1323
 2988.3000          2.4436         17.8956          0.1478       4678.6787          0.1547          0.9464          0.1438
 2988.4001          2.4530         18.3665          0.1417       4783.3447          0.1494          0.9533          0.1553
 2988.5000          2.4580         18.2650          0.1377       4838.4487          0.1475          0.9706          0.1528
 2988.6001          2.4534         17.8310          0.1354       4838.4639          0.1508          0.9744          0.1422
 2988.7000          2.4428         17.6001          0.1374       4790.0352          0.1565          0.9623          0.1366
 2988.8000          2.4164         17.6093          0.1436       4735.7578          0.1680          0.9107          0.1368
 2988.9001          2.3986         17.4511          0.1475       4689.6226          0.1756          0.8757          0.1330
 2989.0000          2.3913         16.9443          0.1479       4658.1147          0.1783          0.8555          0.1206
 2989.1001          2.3903         16.5934          0.1430       4647.1206          0.1777          0.8395          0.1120
 2989.2000          2.3919         16.5934          0.1379       4650.7588          0.1759          0.8280          0.1120
 2989.3000          2.4022         16.6211          0.1332       4654.1812          0.1711          0.8397          0.1127
 2989.4001          2.4124         16.5933          0.1319       4644.4365          0.1671          0.8629          0.1120
 2989.5000          2.4255         16.5564          0.1342       4606.7905          0.1627          0.9051          0.1111
 2989.6001          2.4253         16.6026          0.1386       4542.1963          0.1648          0.9304          0.1123
 2989.7000          2.4198         16.6211          0.1438       4486.5620          0.1699          0.9532          0.1127
 2989.8000          2.3972         16.5842          0.1495       4457.1177          0.1825          0.9437          0.1118
 2989.9001          2.3911         16.6865          0.1559       4450.4766          0.1879          0.9680          0.1143
 2990.0000          2.3797         17.0183          0.1637       4454.4604          0.1948          0.9701          0.1224
 2990.1001          2.3675         17.3969          0.1663       4452.3193          0.2004          0.9521          0.1316
 2990.2000          2.3580         17.3600          0.1716       4448.3560          0.2029          0.9199          0.1307
 2990.3000          2.3621         17.1383          0.1684       4460.5356          0.1984          0.8964          0.1253
 2990.4001          2.3674         17.2956          0.1624       4500.4136          0.1925          0.8647          0.1292
 2990.5000          2.3860         17.4246          0.1533       4570.9761          0.1812          0.8563          0.1323
 2990.6001          2.4080         17.3045          0.1430       4670.1763          0.1698          0.8697          0.1294
 2990.7000          2.4218         17.2122          0.1333       4795.4536          0.1639          0.8957          0.1271
 2990.8000          2.4331         17.1383          0.1284       4930.2119          0.1615          0.9495          0.1253
 2990.9001          2.4292         17.1657          0.1324       5028.1719          0.1669          0.9878          0.1260
 2991.0000          2.4198         17.0367          0.1409       5046.7168          0.1736          1.0000          0.1228
 2991.1001          2.4005         16.5103          0.1504       4970.2241          0.1856          1.0000          0.1100
 2991.2000          2.3782         15.9099          0.1565       4832.1587          0.1994          1.0000          0.0954
 2991.3000          2.3694         15.5867          0.1636       4692.6602          0.2048          1.0000          0.0875
 2991.4001          2.3696         15.6336          0.1649       4577.2788          0.2047          1.0000          0.0886
 2991.5000          2.3713         15.9099          0.1659       4498.9658          0.2035          1.0000          0.0954
 2991.6001          2.3690         16.2147          0.1637       4461.5933          0.2048          1.0000          0.1028
 2991.7000          2.3804         16.6396          0.1615       4458.6953          0.1977          1.0000          0.1132
 2991.8000          2.3977         17.6740          0.1542       4486.9058          0.1867          1.0000          0.1384
 2991.9001          2.4241         19.1364          0.1442       4541.0063          0.1701          1.0000          0.1741
 2992.0000          2.4443         20.4355          0.1296       4607.9185          0.1572          1.0000          0.2057
 2992.1001          2.4604         21.4883          0.1162       4689.2886          0.1470          1.0000          0.2314
 2992.2000          2.4756         22.0979          0.1085       4783.9082          0.1375          1.0000          0.2463
 2992.3000          2.4897         22.0979          0.1043       4882.5264          0.1289          1.0000          0.2463
