~VERSION INFORMATION
 VERS.                          2.0   : CWLS LOG ASCII STANDARD - VERSION 2.0
 WRAP.                          NO    : ONE LINE PER DEPTH STEP
#
~Well Information Section
#MNEM     .UNIT     DATA                DESCRIPTION
#-----    -----     --------            --------------
 STRT     .M        359.0000            : START DEPTH
 STOP     .M        3300.0000           : END DEPTH
 STEP     .M        0.1000              : INCREMENT DEPTH
 NULL     .         -999.2500           : NULL VALUE
 COMP     .                              :
 WELL     .         KTB-1               : WELL NAME
 EKB      .M        47.3000             : KELLY BUSHING ELEVATION
 EGL      .M        0.0000              : GROUND LEVEL ELEVATION
 EPD      .M        0.0000              : PERMANENT DATUM ELEVATION
 FLD      .                              :
 LOC      . X = 554114.2800 Y = 9205184.3100: WELL LOCATION
 PROV     .                              :
 SRVC     .                              :
 PROV     .                              :
 DATE     .                              :
 API      .                              :
#
~Curve Information Section
#MNEM     .UNIT               Curve #DESCRIPTION
#-----    -----               ----   --------------
 DEPTH    .M                  : 1     Name = Domain Curve - Type = DEPTH
 RHOB     .g/cc               : 2     Name = Density_1 - Type = Density
 GR       .gapi               : 3     Name = Gamma Ray_1 - Type = Gamma Ray
 NPHI     .v/v                : 4     Name = Neutron Porosity_1 - Type = Neutron Porosity
 DT       .m/s                : 5     Name = P-wave_1 - Type = P-wave
 PHIE  .fraction           : 6     Name = PHIE - Type = Porosity
 SW  .0.Sw               : 7     Name = SW - Type = Water Saturatio
 VCL  .fraction           : 8     Name = VCL - Type = Volumetric
~A (ASCII LOG DATA)
# ...
 2873.6001          2.5730         17.3230          0.0497       5279.4858          0.0638          0.4055          0.1298
 2873.7000          2.5667         16.9998          0.0509       5217.9365          0.0660          0.3924          0.1219
 2873.8000          2.5605         16.6303          0.0523       5183.1890          0.0683          0.3777          0.1129
 2873.9001          2.5515         16.2788          0.0522       5164.5542          0.0719          0.3565          0.1044
 2874.0000          2.5424         16.0485          0.0539       5150.8760          0.0753          0.3373          0.0987
 2874.1001          2.5446         16.1593          0.0535       5139.4897          0.0744          0.3384          0.1014
 2874.2000          2.5448         16.3810          0.0537       5108.4116          0.0750          0.3346          0.1069
 2874.3000          2.5476         16.5749          0.0552       5093.6426          0.0750          0.3360          0.1116
 2874.4001          2.5524         16.6394          0.0574       5096.4302          0.0750          0.3401          0.1132
 2874.5000          2.5621         16.5749          0.0588       5118.5083          0.0728          0.3576          0.1116
 2874.6001          2.5664         16.8335          0.0618       5155.5195          0.0720          0.3710          0.1179
 2874.7000          2.5659         17.1013          0.0631       5159.2808          0.0729          0.3781          0.1244
 2874.8000          2.5632         17.0736          0.0669       5141.0591          0.0737          0.3863          0.1237
 2874.9001          2.5594         17.1575          0.0696       5093.5308          0.0748          0.3921          0.1258
 2875.0000          2.5476         17.4339          0.0693       5027.0898          0.0789          0.3812          0.1325
 2875.1001          2.5424         17.8218          0.0701       4978.1147          0.0797          0.3845          0.1420
 2875.2000          2.5384         18.0526          0.0688       4946.1729          0.0809          0.3850          0.1476
 2875.3000          2.5433         17.9880          0.0684       4935.3530          0.0794          0.3981          0.1460
 2875.4001          2.5465         17.9696          0.0690       4971.6172          0.0786          0.4068          0.1456
 2875.5000          2.5440         18.0157          0.0680       5030.8071          0.0814          0.3991          0.1467
 2875.6001          2.5430         18.1358          0.0684       5086.7739          0.0826          0.4007          0.1497
 2875.7000          2.5455         18.2189          0.0689       5134.3042          0.0825          0.4095          0.1517
 2875.8000          2.5417         18.0341          0.0726       5122.8267          0.0846          0.4079          0.1472
 2875.9001          2.5418         17.9228          0.0786       5066.5225          0.0851          0.4145          0.1445
 2876.0000          2.5361         17.7386          0.0844       5007.7305          0.0887          0.4043          0.1400
 2876.1001          2.5244         17.2768          0.0901       4947.6826          0.0944          0.3830          0.1287
 2876.2000          2.5045         16.9166          0.0944       4910.3638          0.1025          0.3540          0.1199
 2876.3000          2.4944         16.6396          0.0978       4886.5967          0.1052          0.3431          0.1132
 2876.4001          2.4916         16.3248          0.0991       4862.3662          0.1058          0.3379          0.1055
 2876.5000          2.4824         16.0208          0.1031       4836.2373          0.1088          0.3244          0.0981
 2876.6001          2.4842         15.8453          0.1044       4811.7300          0.1077          0.3246          0.0938
 2876.7000          2.4853         16.0023          0.1055       4800.9600          0.1074          0.3249          0.0976
 2876.8000          2.4835         16.2517          0.1076       4785.1470          0.1079          0.3260          0.1037
 2876.9001          2.4745         16.3257          0.1059       4768.5732          0.1128          0.3171          0.1055
 2877.0000          2.4750         16.4087          0.1067       4747.6934          0.1145          0.3202          0.1075
 2877.1001          2.4738         16.7504          0.1068       4708.6011          0.1165          0.3246          0.1159
 2877.2000          2.4758         17.1013          0.1074       4670.4194          0.1164          0.3342          0.1244
 2877.3000          2.4759         17.2491          0.1102       4631.7964          0.1150          0.3448          0.1280
 2877.4001          2.4676         17.3423          0.1088       4574.9380          0.1168          0.3424          0.1303
 2877.5000          2.4637         17.6647          0.1078       4508.7822          0.1163          0.3434          0.1382
 2877.6001          2.4654         18.7176          0.1058       4432.8159          0.1142          0.3459          0.1638
 2877.7000          2.4617         20.0014          0.1022       4379.6436          0.1160          0.3347          0.1952
 2877.8000          2.4648         20.7679          0.1005       4374.5713          0.1153          0.3292          0.2139
 2877.9001          2.4499         21.3782          0.1015       4413.1997          0.1226          0.3031          0.2287
 2878.0000          2.4413         21.6454          0.1047       4480.3237          0.1267          0.2876          0.2353
 2878.1001          2.4310         21.1835          0.1103       4514.4990          0.1311          0.2734          0.2240
 2878.2000          2.4248         20.4262          0.1116       4502.5146          0.1334          0.2649          0.2055
 2878.3000          2.4159         19.2718          0.1115       4455.3198          0.1370          0.2546          0.1774
 2878.4001          2.4085         18.0055          0.1103       4401.2646          0.1403          0.2456          0.1465
 2878.5000          2.4009         17.5816          0.1113       4366.9751          0.1438          0.2368          0.1361
 2878.6001          2.4060         17.6832          0.1125       4349.7993          0.1420          0.2376          0.1386
 2878.7000          2.4148         17.6370          0.1140       4344.2632          0.1385          0.2423          0.1375
 2878.8000          2.4176         17.5631          0.1156       4342.3384          0.1379          0.2435          0.1357
 2878.9001          2.4198         17.5260          0.1174       4353.0581          0.1375          0.2463          0.1348
 2879.0000          2.4276         17.4246          0.1202       4379.7505          0.1346          0.2569          0.1323
 2879.1001          2.4283         17.3045          0.1228       4414.1348          0.1364          0.2622          0.1294
 2879.2000          2.4327         17.0367          0.1265       4444.6519          0.1361          0.2743          0.1228
 2879.3000          2.4268         16.6857          0.1316       4462.7104          0.1397          0.2804          0.1143
 2879.4001          2.4280         16.5844          0.1374       4460.6309          0.1405          0.2923          0.1118
 2879.5000          2.4206         16.6857          0.1435       4451.5913          0.1434          0.2976          0.1143
 2879.6001          2.4172         16.7689          0.1472       4445.2998          0.1457          0.2995          0.1163
 2879.7000          2.4123         16.7319          0.1487       4440.9990          0.1477          0.2974          0.1154
 2879.8000          2.4092         16.4456          0.1483       4441.2905          0.1482          0.2946          0.1084
 2879.9001          2.4122         16.0019          0.1507       4430.1885          0.1459          0.2944          0.0976
 2880.0000          2.4099         15.8176          0.1495       4385.7632          0.1463          0.2878          0.0931
 2880.1001          2.4113         15.7899          0.1485       4307.0615          0.1458          0.2841          0.0924
