~VERSION INFORMATION
 VERS.                          2.0   : CWLS LOG ASCII STANDARD - VERSION 2.0
 WRAP.                          NO    : ONE LINE PER DEPTH STEP
#
~Well Information Section
#MNEM     .UNIT     DATA                DESCRIPTION
#-----    -----     --------            --------------
 STRT     .M        359.0000            : START DEPTH
 STOP     .M        3300.0000           : END DEPTH
 STEP     .M        0.1000              : INCREMENT DEPTH
 NULL     .         -999.2500           : NULL VALUE
 COMP     .                              :
 WELL     .         KTB-1               : WELL NAME
 EKB      .M        47.3000             : KELLY BUSHING ELEVATION
 EGL      .M        0.0000              : GROUND LEVEL ELEVATION
 EPD      .M        0.0000              : PERMANENT DATUM ELEVATION
 FLD      .                              :
 LOC      . X = 554114.2800 Y = 9205184.3100: WELL LOCATION
 PROV     .                              :
 SRVC     .                              :
 PROV     .                              :
 DATE     .                              :
 API      .                              :
#
~Curve Information Section
#MNEM     .UNIT               Curve #DESCRIPTION
#-----    -----               ----   --------------
 DEPTH    .M                  : 1     Name = Domain Curve - Type = DEPTH
 RHOB     .g/cc               : 2     Name = Density_1 - Type = Density
 GR       .gapi               : 3     Name = Gamma Ray_1 - Type = Gamma Ray
 NPHI     .v/v                : 4     Name = Neutron Porosity_1 - Type = Neutron Porosity
 DT       .m/s                : 5     Name = P-wave_1 - Type = P-wave
 PHIE  .fraction           : 6     Name = PHIE - Type = Porosity
 SW  .0.Sw               : 7     Name = SW - Type = Water Saturatio
 VCL  .fraction           : 8     Name = VCL - Type = Volumetric
~A (ASCII LOG DATA)
# ...
 3098.0000          2.5280         22.1071          0.0788       5022.0210          0.1057          1.0000          0.2465
 3098.1001          2.5448         22.4950          0.0761       5060.0552          0.0953          1.0000          0.2560
 3098.2000          2.5645         23.0861          0.0729       5080.0254          0.0831          1.0000          0.2704
 3098.3000          2.5797         23.3817          0.0702       5086.6548          0.0738          1.0000          0.2776
 3098.4001          2.5773         23.7436          0.0671       5079.6265          0.0751          1.0000          0.2864
 3098.5000          2.5711         24.4530          0.0648       5061.7778          0.0785          1.0000          0.3037
 3098.6001          2.5876         25.5059          0.0638       5080.8042          0.0680          1.0000          0.3294
 3098.7000          2.5931         26.2909          0.0614       5164.2725          0.0643          1.0000          0.3486
 3098.8000          2.5897         26.4387          0.0593       5274.1138          0.0663          1.0000          0.3522
 3098.9001          2.5796         26.7267          0.0559       5363.2588          0.0723          1.0000          0.3591
 3099.0000          2.5791         27.4362          0.0534       5389.4727          0.0723          1.0000          0.3765
 3099.1001          2.5865         28.4244          0.0531       5365.0635          0.0673          1.0000          0.4006
 3099.2000          2.5856         29.4126          0.0543       5379.5605          0.0674          1.0000          0.4247
 3099.3000          2.5843         30.1053          0.0552       5459.0396          0.0679          1.0000          0.4416
 3099.4001          2.5837         30.7162          0.0601       5559.8135          0.0679          1.0000          0.4565
 3099.5000          2.5572         31.2782          0.0647       5610.1807          0.0838          1.0000          0.4702
 3099.6001          2.5397         31.7493          0.0693       5579.6177          0.0942          1.0000          0.4817
 3099.7000          2.5295         31.9709          0.0722       5492.9507          0.1003          1.0000          0.4871
 3099.8000          2.5271         31.4445          0.0739       5397.7280          0.1020          1.0000          0.4743
 3099.9001          2.5248         30.1112          0.0748       5338.1357          0.1040          1.0000          0.4417
 3100.0000          2.5194         28.7569          0.0762       5288.9395          0.1079          1.0000          0.4087
 3100.1001          2.5090         27.5192          0.0784       5254.9639          0.1147          1.0000          0.3785
 3100.2000          2.5036         26.4849          0.0833       5257.1211          0.1185          1.0000          0.3533
 3100.3000          2.5034         25.9307          0.0916       5276.7798          0.1189          1.0000          0.3398
 3100.4001          2.5030         25.2265          0.1009       5293.9492          0.1194          1.0000          0.3226
 3100.5000          2.4970         24.2683          0.1113       5238.8325          0.1235          1.0000          0.2992
 3100.6001          2.4800         23.7880          0.1203       5093.8213          0.1340          1.0000          0.2875
 3100.7000          2.4580         23.9173          0.1284       4885.7192          0.1473          1.0000          0.2907
 3100.8000          2.4461         24.0189          0.1356       4681.3086          0.1545          1.0000          0.2931
 3100.9001          2.4366         23.8243          0.1421       4543.4883          0.1603          1.0000          0.2884
 3101.0000          2.4236         23.5202          0.1457       4493.2427          0.1683          1.0000          0.2810
 3101.1001          2.4068         23.2708          0.1480       4518.2529          0.1786          1.0000          0.2749
 3101.2000          2.3964         23.0861          0.1518       4563.5508          0.1850          1.0000          0.2704
 3101.3000          2.3969         22.8737          0.1533       4593.7583          0.1848          1.0000          0.2652
 3101.4001          2.4020         22.6423          0.1533       4586.9204          0.1818          1.0000          0.2596
 3101.5000          2.4017         22.4581          0.1538       4555.5908          0.1821          1.0000          0.2551
 3101.6001          2.3999         22.2918          0.1547       4537.1997          0.1833          1.0000          0.2510
 3101.7000          2.4030         22.2826          0.1539       4541.0591          0.1814          1.0000          0.2508
 3101.8000          2.4072         22.8737          0.1544       4554.4741          0.1786          1.0000          0.2652
 3101.9001          2.4125         23.9197          0.1533       4561.4141          0.1749          1.0000          0.2908
 3102.0000          2.4087         24.8871          0.1501       4547.7876          0.1767          1.0000          0.3143
 3102.1001          2.4099         25.5151          0.1478       4528.0259          0.1757          1.0000          0.3296
 3102.2000          2.4110         25.8384          0.1468       4515.8833          0.1749          1.0000          0.3375
 3102.3000          2.4037         26.3002          0.1483       4527.3804          0.1791          1.0000          0.3488
 3102.4001          2.3993         26.4839          0.1517       4561.9541          0.1817          1.0000          0.3533
 3102.5000          2.3928         26.0600          0.1560       4601.9219          0.1858          1.0000          0.3429
 3102.6001          2.3795         25.6444          0.1614       4631.0151          0.1941          1.0000          0.3328
 3102.7000          2.3659         25.2103          0.1674       4623.2813          0.2025          1.0000          0.3222
 3102.8000          2.3547         25.0441          0.1707       4592.1943          0.2094          1.0000          0.3181
 3102.9001          2.3461         25.3392          0.1740       4546.9463          0.2145          1.0000          0.3254
 3103.0000          2.3440         25.1457          0.1736       4502.6484          0.2158          1.0000          0.3206
 3103.1001          2.3492         24.8132          0.1710       4475.0942          0.2128          1.0000          0.3125
 3103.2000          2.3572         25.2842          0.1702       4442.9868          0.2078          1.0000          0.3240
 3103.3000          2.3722         25.9030          0.1697       4412.7031          0.1984          1.0000          0.3391
 3103.4001          2.3745         26.5345          0.1681       4382.4658          0.1967          1.0000          0.3545
 3103.5000          2.3785         27.9441          0.1672       4349.2900          0.1936          1.0000          0.3889
 3103.6001          2.3817         29.5696          0.1695       4333.6758          0.1910          1.0000          0.4285
 3103.7000          2.3856         30.2992          0.1693       4315.1108          0.1883          1.0000          0.4463
 3103.8000          2.3740         30.2346          0.1699       4293.3267          0.1953          1.0000          0.4447
 3103.9001          2.3648         30.0030          0.1736       4266.6802          0.2010          1.0000          0.4391
 3104.0000          2.3636         29.7174          0.1749       4240.6069          0.2019          1.0000          0.4321
 3104.1001          2.3618         28.9693          0.1771       4217.8325          0.2033          1.0000          0.4139
 3104.2000          2.3520         27.3345          0.1804       4197.8438          0.2100          1.0000          0.3740
 3104.3000          2.3427         25.6998          0.1799       4186.3418          0.2164          1.0000          0.3341
 3104.4001          2.3319         25.1827          0.1781       4163.8970          0.2232          1.0000          0.3215
 3104.5000          2.3392         25.2103          0.1794       4146.0762          0.2187          1.0000          0.3222
