~VERSION INFORMATION
 VERS.                          2.0   : CWLS LOG ASCII STANDARD - VERSION 2.0
 WRAP.                          NO    : ONE LINE PER DEPTH STEP
#
~Well Information Section
#MNEM     .UNIT     DATA                DESCRIPTION
#-----    -----     --------            --------------
 STRT     .M        359.0000            : START DEPTH
 STOP     .M        3300.0000           : END DEPTH
 STEP     .M        0.1000              : INCREMENT DEPTH
 NULL     .         -999.2500           : NULL VALUE
 COMP     .                              :
 WELL     .         KTB-1               : WELL NAME
 EKB      .M        47.3000             : KELLY BUSHING ELEVATION
 EGL      .M        0.0000              : GROUND LEVEL ELEVATION
 EPD      .M        0.0000              : PERMANENT DATUM ELEVATION
 FLD      .                              :
 LOC      . X = 554114.2800 Y = 9205184.3100: WELL LOCATION
 PROV     .                              :
 SRVC     .                              :
 PROV     .                              :
 DATE     .                              :
 API      .                              :
#
~Curve Information Section
#MNEM     .UNIT               Curve #DESCRIPTION
#-----    -----               ----   --------------
 DEPTH    .M                  : 1     Name = Domain Curve - Type = DEPTH
 RHOB     .g/cc               : 2     Name = Density_1 - Type = Density
 GR       .gapi               : 3     Name = Gamma Ray_1 - Type = Gamma Ray
 NPHI     .v/v                : 4     Name = Neutron Porosity_1 - Type = Neutron Porosity
 DT       .m/s                : 5     Name = P-wave_1 - Type = P-wave
 PHIE  .fraction           : 6     Name = PHIE - Type = Porosity
 SW  .0.Sw               : 7     Name = SW - Type = Water Saturatio
 VCL  .fraction           : 8     Name = VCL - Type = Volumetric
~A (ASCII LOG DATA)
# ...
 3058.4001          2.5401         15.3096          0.0768       5282.0366          0.1015          1.0000          0.0807
 3058.5000          2.5455         15.3188          0.0746       5341.3804          0.0982          1.0000          0.0809
 3058.6001          2.5498         15.5867          0.0742       5371.7202          0.0955          1.0000          0.0875
 3058.7000          2.5547         15.6975          0.0740       5387.9194          0.0924          1.0000          0.0902
 3058.8000          2.5597         15.5128          0.0745       5392.8574          0.0895          1.0000          0.0857
 3058.9001          2.5583         15.2537          0.0744       5396.1450          0.0905          1.0000          0.0794
 3059.0000          2.5549         15.0695          0.0744       5401.3530          0.0926          1.0000          0.0749
 3059.1001          2.5496         14.8940          0.0734       5393.4492          0.0959          1.0000          0.0706
 3059.2000          2.5488         14.6539          0.0748       5382.1255          0.0965          1.0000          0.0647
 3059.3000          2.5470         14.3491          0.0758       5369.6006          0.0977          1.0000          0.0573
 3059.4001          2.5421         14.2388          0.0775       5359.1025          0.1008          1.0000          0.0546
 3059.5000          2.5409         14.4415          0.0801       5347.7998          0.1014          1.0000          0.0595
 3059.6001          2.5368         14.6262          0.0814       5337.2930          0.1038          1.0000          0.0641
 3059.7000          2.5333         14.7370          0.0821       5320.4390          0.1059          1.0000          0.0668
 3059.8000          2.5266         14.8571          0.0817       5298.2715          0.1099          1.0000          0.0697
 3059.9001          2.5334         14.8476          0.0824       5272.0078          0.1057          1.0000          0.0695
 3060.0000          2.5416         14.7647          0.0820       5235.2153          0.1008          1.0000          0.0674
 3060.1001          2.5451         14.6262          0.0815       5205.9849          0.0988          1.0000          0.0641
 3060.2000          2.5448         14.3768          0.0819       5185.6665          0.0991          1.0000          0.0580
 3060.3000          2.5516         14.1275          0.0820       5192.7256          0.0950          1.0000          0.0519
 3060.4001          2.5618         13.8680          0.0802       5222.2578          0.0890          1.0000          0.0456
 3060.5000          2.5737         13.5271          0.0777       5253.0986          0.0819          1.0000          0.0372
 3060.6001          2.5772         13.2039          0.0746       5279.1011          0.0800          1.0000          0.0294
 3060.7000          2.5713         13.0930          0.0718       5287.8389          0.0836          1.0000          0.0267
 3060.8000          2.5739         13.2039          0.0715       5285.8486          0.0820          1.0000          0.0294
 3060.9001          2.5779         13.3612          0.0728       5286.8999          0.0795          1.0000          0.0332
 3061.0000          2.5762         13.4717          0.0733       5300.6299          0.0804          1.0000          0.0359
 3061.1001          2.5882         13.7949          0.0741       5314.0205          0.0730          1.0000          0.0438
 3061.2000          2.5904         14.3860          0.0736       5320.0308          0.0714          1.0000          0.0582
 3061.3000          2.5781         14.7093          0.0721       5319.6597          0.0787          1.0000          0.0661
 3061.4001          2.5837         14.7281          0.0715       5304.1167          0.0753          1.0000          0.0665
 3061.5000          2.5842         14.8386          0.0712       5304.3472          0.0750          1.0000          0.0692
 3061.6001          2.5810         15.0141          0.0728       5316.5049          0.0768          1.0000          0.0735
 3061.7000          2.5764         15.0695          0.0747       5331.0762          0.0796          1.0000          0.0749
 3061.8000          2.5636         14.7924          0.0744       5341.5771          0.0875          1.0000          0.0681
 3061.9001          2.5700         14.4419          0.0733       5319.5239          0.0837          1.0000          0.0595
 3062.0000          2.5739         14.6262          0.0709       5294.4243          0.0813          1.0000          0.0641
 3062.1001          2.5742         15.0695          0.0667       5278.5342          0.0809          1.0000          0.0749
 3062.2000          2.5816         15.1434          0.0660       5288.5356          0.0764          1.0000          0.0767
 3062.3000          2.5859         14.9864          0.0655       5313.9834          0.0739          1.0000          0.0728
 3062.4001          2.5972         15.0424          0.0669       5339.7163          0.0670          1.0000          0.0742
 3062.5000          2.6011         15.3004          0.0709       5355.7495          0.0645          1.0000          0.0805
 3062.6001          2.5892         15.4297          0.0759       5357.0391          0.0717          1.0000          0.0837
 3062.7000          2.5766         15.1711          0.0807       5364.9126          0.0794          1.0000          0.0773
 3062.8000          2.5578         14.6908          0.0854       5366.9058          0.0910          1.0000          0.0656
 3062.9001          2.5450         14.3950          0.0870       5346.0137          0.0989          1.0000          0.0584
 3063.0000          2.5411         14.2752          0.0886       5302.3545          0.1013          1.0000          0.0555
 3063.1001          2.5309         14.2475          0.0898       5243.7358          0.1075          1.0000          0.0548
 3063.2000          2.5240         14.3953          0.0902       5184.1938          0.1117          1.0000          0.0584
 3063.3000          2.5238         14.5246          0.0895       5163.3540          0.1117          1.0000          0.0616
 3063.4001          2.5301         14.5340          0.0885       5167.7876          0.1079          1.0000          0.0618
 3063.5000          2.5301         14.6169          0.0900       5187.3877          0.1079          1.0000          0.0638
 3063.6001          2.5282         14.8017          0.0920       5204.3052          0.1089          1.0000          0.0683
 3063.7000          2.5234         14.8940          0.0952       5192.3804          0.1118          1.0000          0.0706
 3063.8000          2.5170         14.7462          0.0986       5174.6177          0.1157          1.0000          0.0670
 3063.9001          2.5119         14.4688          0.0985       5141.3345          0.1190          1.0000          0.0602
 3064.0000          2.4961         14.3214          0.0994       5112.2930          0.1286          1.0000          0.0566
 3064.1001          2.4880         14.3953          0.0990       5086.0439          0.1335          1.0000          0.0584
 3064.2000          2.4874         14.6354          0.0995       5065.5464          0.1337          1.0000          0.0643
 3064.3000          2.4886         14.9679          0.0997       5057.9053          0.1329          1.0000          0.0724
 3064.4001          2.4896         15.3474          0.1003       5055.9038          0.1321          1.0000          0.0816
 3064.5000          2.4952         15.6975          0.1012       5064.2837          0.1285          1.0000          0.0902
 3064.6001          2.4948         15.8453          0.1007       5057.5361          0.1287          1.0000          0.0938
 3064.7000          2.5077         15.9561          0.0983       5037.7168          0.1208          1.0000          0.0965
 3064.8000          2.5160         16.1870          0.0959       5008.9648          0.1157          1.0000          0.1021
 3064.9001          2.5142         16.3442          0.0956       4983.8608          0.1167          1.0000          0.1060
