~VERSION INFORMATION
 VERS.                          2.0   : CWLS LOG ASCII STANDARD - VERSION 2.0
 WRAP.                          NO    : ONE LINE PER DEPTH STEP
#
~Well Information Section
#MNEM     .UNIT     DATA                DESCRIPTION
#-----    -----     --------            --------------
 STRT     .M        359.0000            : START DEPTH
 STOP     .M        3300.0000           : END DEPTH
 STEP     .M        0.1000              : INCREMENT DEPTH
 NULL     .         -999.2500           : NULL VALUE
 COMP     .                              :
 WELL     .         KTB-1               : WELL NAME
 EKB      .M        47.3000             : KELLY BUSHING ELEVATION
 EGL      .M        0.0000              : GROUND LEVEL ELEVATION
 EPD      .M        0.0000              : PERMANENT DATUM ELEVATION
 FLD      .                              :
 LOC      . X = 554114.2800 Y = 9205184.3100: WELL LOCATION
 PROV     .                              :
 SRVC     .                              :
 PROV     .                              :
 DATE     .                              :
 API      .                              :
#
~Curve Information Section
#MNEM     .UNIT               Curve #DESCRIPTION
#-----    -----               ----   --------------
 DEPTH    .M                  : 1     Name = Domain Curve - Type = DEPTH
 RHOB     .g/cc               : 2     Name = Density_1 - Type = Density
 GR       .gapi               : 3     Name = Gamma Ray_1 - Type = Gamma Ray
 NPHI     .v/v                : 4     Name = Neutron Porosity_1 - Type = Neutron Porosity
 DT       .m/s                : 5     Name = P-wave_1 - Type = P-wave
 PHIE  .fraction           : 6     Name = PHIE - Type = Porosity
 SW  .0.Sw               : 7     Name = SW - Type = Water Saturatio
 VCL  .fraction           : 8     Name = VCL - Type = Volumetric
~A (ASCII LOG DATA)
# ...
 2946.2000          2.4518         16.2978          0.1372       4756.8809          0.1546          1.0000          0.1048
 2946.3000          2.4429         16.3255          0.1371       4787.2744          0.1599          1.0000          0.1055
 2946.4001          2.4358         16.6581          0.1364       4807.8188          0.1623          0.9751          0.1136
 2946.5000          2.4316         16.6581          0.1398       4791.5415          0.1630          0.9550          0.1136
 2946.6001          2.4291         16.3994          0.1406       4776.7778          0.1635          0.9403          0.1073
 2946.7000          2.4240         16.3810          0.1421       4772.2759          0.1652          0.9245          0.1069
 2946.8000          2.4221         16.5380          0.1428       4795.6118          0.1662          0.9232          0.1107
 2946.9001          2.4221         16.5006          0.1444       4842.6431          0.1668          0.9309          0.1098
 2947.0000          2.4219         16.3440          0.1447       4869.7412          0.1679          0.9426          0.1060
 2947.1001          2.4277         16.5564          0.1475       4864.2231          0.1663          0.9700          0.1111
 2947.2000          2.4273         16.9166          0.1509       4831.3389          0.1675          0.9786          0.1199
 2947.3000          2.4284         16.9998          0.1528       4789.4106          0.1677          0.9901          0.1219
 2947.4001          2.4241         17.0275          0.1547       4753.0122          0.1698          0.9844          0.1226
 2947.5000          2.4242         17.0367          0.1552       4733.0659          0.1697          0.9842          0.1228
 2947.6001          2.4161         16.9536          0.1545       4709.2705          0.1726          0.9617          0.1208
 2947.7000          2.4165         16.8982          0.1522       4688.8916          0.1721          0.9575          0.1195
 2947.8000          2.4173         16.7596          0.1501       4670.2192          0.1713          0.9533          0.1161
 2947.9001          2.4262         16.7139          0.1482       4649.5356          0.1668          0.9661          0.1150
 2948.0000          2.4266         16.9259          0.1468       4642.7461          0.1655          0.9510          0.1201
 2948.1001          2.4330         17.1752          0.1443       4643.4038          0.1611          0.9439          0.1262
 2948.2000          2.4413         17.6740          0.1394       4668.1025          0.1553          0.9353          0.1384
 2948.3000          2.4512         18.2373          0.1355       4713.8374          0.1483          0.9212          0.1521
 2948.4001          2.4653         18.4230          0.1289       4770.8071          0.1392          0.9093          0.1566
 2948.5000          2.4836         18.7730          0.1240       4836.2065          0.1284          0.9101          0.1652
 2948.6001          2.4959         19.4380          0.1165       4895.2451          0.1204          0.8997          0.1814
 2948.7000          2.5114         20.0383          0.1084       4963.4502          0.1117          0.9087          0.1961
 2948.8000          2.5207         20.6664          0.1008       5035.2451          0.1064          0.9158          0.2114
 2948.9001          2.5253         21.2958          0.0972       5099.3867          0.1038          0.9228          0.2267
 2949.0000          2.5213         21.8485          0.0960       5144.9985          0.1051          0.9085          0.2402
 2949.1001          2.5203         22.3472          0.0952       5134.6152          0.1056          0.9105          0.2524
 2949.2000          2.5135         22.9291          0.0958       5085.4668          0.1085          0.8958          0.2666
 2949.3000          2.5159         23.6587          0.0939       5023.9004          0.1076          0.9114          0.2844
 2949.4001          2.5197         24.2319          0.0907       4979.3169          0.1058          0.9248          0.2983
 2949.5000          2.5251         24.4622          0.0887       4991.8198          0.1031          0.9365          0.3040
 2949.6001          2.5281         24.1298          0.0881       5058.7954          0.1014          0.9341          0.2958
 2949.7000          2.5317         23.4001          0.0867       5151.6074          0.0995          0.9317          0.2781
 2949.8000          2.5388         22.8829          0.0847       5230.9302          0.0961          0.9423          0.2654
 2949.9001          2.5435         22.2705          0.0813       5257.7261          0.0936          0.9434          0.2505
 2950.0000          2.5420         21.0820          0.0790       5241.9409          0.0940          0.9198          0.2215
 2950.1001          2.5429         19.7243          0.0784       5222.3975          0.0936          0.9094          0.1884
 2950.2000          2.5427         18.9023          0.0785       5222.9165          0.0937          0.9009          0.1683
 2950.3000          2.5481         18.8654          0.0813       5260.5513          0.0913          0.9185          0.1674
 2950.4001          2.5503         19.1802          0.0806       5300.4712          0.0903          0.9267          0.1751
 2950.5000          2.5552         19.5211          0.0808       5303.4521          0.0883          0.9517          0.1834
 2950.6001          2.5571         19.7797          0.0813       5275.8760          0.0877          0.9698          0.1897
 2950.7000          2.5559         20.0383          0.0825       5232.9326          0.0888          0.9758          0.1961
 2950.8000          2.5502         20.2692          0.0845       5205.8428          0.0917          0.9725          0.2017
 2950.9001          2.5367         20.2966          0.0920       5217.0381          0.0985          0.9433          0.2024
 2951.0000          2.5178         20.1768          0.0962       5233.3101          0.1078          0.9076          0.1994
 2951.1001          2.5083         19.8536          0.1052       5231.2441          0.1139          0.9144          0.1916
 2951.2000          2.4879         19.3641          0.1128       5190.7710          0.1246          0.8902          0.1796
 2951.3000          2.4711         18.6529          0.1215       5105.4082          0.1336          0.8742          0.1623
 2951.4001          2.4543         17.8666          0.1299       4997.3433          0.1421          0.8534          0.1431
 2951.5000          2.4415         17.3322          0.1344       4886.5581          0.1483          0.8345          0.1301
 2951.6001          2.4413         16.8889          0.1352       4788.8911          0.1485          0.8322          0.1192
 2951.7000          2.4493         16.5287          0.1302       4715.5068          0.1444          0.8370          0.1105
 2951.8000          2.4599         16.6765          0.1238       4686.0947          0.1388          0.8431          0.1141
 2951.9001          2.4838         17.3620          0.1176       4694.7983          0.1275          0.8841          0.1307
 2952.0000          2.4999         18.1820          0.1136       4753.3276          0.1194          0.9123          0.1508
 2952.1001          2.5143         18.8746          0.1105       4860.8799          0.1125          0.9461          0.1677
 2952.2000          2.5257         19.3179          0.1116       4995.2471          0.1076          0.9837          0.1785
 2952.3000          2.5136         19.4657          0.1130       5126.5581          0.1131          0.9539          0.1821
 2952.4001          2.5007         19.5862          0.1129       5192.5469          0.1195          0.9343          0.1850
 2952.5000          2.4998         19.7336          0.1152       5177.4746          0.1211          0.9526          0.1886
 2952.6001          2.4922         19.6689          0.1180       5091.2261          0.1250          0.9435          0.1870
 2952.7000          2.4996         19.5304          0.1147       4988.6821          0.1222          0.9721          0.1837
