~VERSION INFORMATION
 VERS.                          2.0   : CWLS LOG ASCII STANDARD - VERSION 2.0
 WRAP.                          NO    : ONE LINE PER DEPTH STEP
#
~Well Information Section
#MNEM     .UNIT     DATA                DESCRIPTION
#-----    -----     --------            --------------
 STRT     .M        359.0000            : START DEPTH
 STOP     .M        3300.0000           : END DEPTH
 STEP     .M        0.1000              : INCREMENT DEPTH
 NULL     .         -999.2500           : NULL VALUE
 COMP     .                              :
 WELL     .         KTB-1               : WELL NAME
 EKB      .M        47.3000             : KELLY BUSHING ELEVATION
 EGL      .M        0.0000              : GROUND LEVEL ELEVATION
 EPD      .M        0.0000              : PERMANENT DATUM ELEVATION
 FLD      .                              :
 LOC      . X = 554114.2800 Y = 9205184.3100: WELL LOCATION
 PROV     .                              :
 SRVC     .                              :
 PROV     .                              :
 DATE     .                              :
 API      .                              :
#
~Curve Information Section
#MNEM     .UNIT               Curve #DESCRIPTION
#-----    -----               ----   --------------
 DEPTH    .M                  : 1     Name = Domain Curve - Type = DEPTH
 RHOB     .g/cc               : 2     Name = Density_1 - Type = Density
 GR       .gapi               : 3     Name = Gamma Ray_1 - Type = Gamma Ray
 NPHI     .v/v                : 4     Name = Neutron Porosity_1 - Type = Neutron Porosity
 DT       .m/s                : 5     Name = P-wave_1 - Type = P-wave
 PHIE  .fraction           : 6     Name = PHIE - Type = Porosity
 SW  .0.Sw               : 7     Name = SW - Type = Water Saturatio
 VCL  .fraction           : 8     Name = VCL - Type = Volumetric
~A (ASCII LOG DATA)
# ...
 3131.0000          2.3435         22.0794          0.1733       4330.5356          0.2175          1.0000          0.2458
 3131.1001          2.3440         22.1256          0.1705       4281.8911          0.2171          0.9995          0.2470
 3131.2000          2.3458         21.9501          0.1676       4263.4736          0.2154          0.9914          0.2427
 3131.3000          2.3606         22.0240          0.1670       4287.3477          0.2072          1.0000          0.2445
 3131.4001          2.3735         22.0610          0.1621       4354.4238          0.1994          1.0000          0.2454
 3131.5000          2.3802         22.0425          0.1614       4449.0376          0.1953          1.0000          0.2449
 3131.6001          2.3806         22.0517          0.1592       4537.0576          0.1951          1.0000          0.2452
 3131.7000          2.3869         22.1071          0.1574       4587.4185          0.1912          1.0000          0.2465
 3131.8000          2.3894         22.6059          0.1534       4589.7671          0.1895          1.0000          0.2587
 3131.9001          2.3982         23.1970          0.1504       4528.7095          0.1839          1.0000          0.2731
 3132.0000          2.4073         23.2062          0.1444       4439.3691          0.1784          1.0000          0.2733
 3132.1001          2.4205         23.2523          0.1370       4353.5146          0.1703          1.0000          0.2744
 3132.2000          2.4374         24.0928          0.1242       4305.2305          0.1597          1.0000          0.2949
 3132.3000          2.4572         24.9795          0.1126       4356.8130          0.1473          1.0000          0.3166
 3132.4001          2.4821         25.4418          0.0977       4497.6909          0.1320          1.0000          0.3278
 3132.5000          2.4989         25.6998          0.0843       4717.4048          0.1217          1.0000          0.3341
 3132.6001          2.5172         25.5705          0.0752       4981.5723          0.1106          1.0000          0.3310
 3132.7000          2.5291         25.3212          0.0667       5202.5640          0.1036          1.0000          0.3249
 3132.8000          2.5420         25.0626          0.0603       5384.7690          0.0958          1.0000          0.3186
 3132.9001          2.5606         24.5352          0.0567       5512.0659          0.0848          1.0000          0.3058
 3133.0000          2.5790         24.1759          0.0534       5611.2549          0.0738          1.0000          0.2970
 3133.1001          2.5848         24.0282          0.0516       5689.4863          0.0704          1.0000          0.2934
 3133.2000          2.5896         23.9635          0.0495       5725.7935          0.0675          1.0000          0.2918
 3133.3000          2.5821         24.3052          0.0490       5749.7935          0.0719          1.0000          0.3001
 3133.4001          2.5858         24.5171          0.0495       5738.7944          0.0695          1.0000          0.3053
 3133.5000          2.5753         24.2590          0.0524       5734.4648          0.0760          1.0000          0.2990
 3133.6001          2.5678         23.7234          0.0575       5736.6992          0.0808          1.0000          0.2859
 3133.7000          2.5448         22.7721          0.0658       5711.6943          0.0952          1.0000          0.2627
 3133.8000          2.5288         21.9132          0.0772       5663.8486          0.1053          1.0000          0.2418
 3133.9001          2.5106         21.4221          0.0909       5552.5010          0.1166          1.0000          0.2298
 3134.0000          2.4968         20.7772          0.1036       5408.5610          0.1252          1.0000          0.2141
 3134.1001          2.4824         20.0383          0.1134       5234.6943          0.1343          1.0000          0.1961
 3134.2000          2.4738         19.6135          0.1216       5048.0376          0.1397          1.0000          0.1857
 3134.3000          2.4649         19.6597          0.1270       4908.9316          0.1451          1.0000          0.1868
 3134.4001          2.4433         20.0201          0.1308       4807.5830          0.1580          1.0000          0.1956
 3134.5000          2.4254         20.1492          0.1337       4772.1636          0.1688          1.0000          0.1988
 3134.6001          2.4142         19.8167          0.1391       4769.9678          0.1757          1.0000          0.1907
 3134.7000          2.4164         19.5765          0.1452       4745.0322          0.1745          1.0000          0.1848
 3134.8000          2.4139         19.5950          0.1485       4699.2798          0.1760          1.0000          0.1852
 3134.9001          2.4140         19.4843          0.1492       4629.1484          0.1760          1.0000          0.1825
 3135.0000          2.4152         19.5304          0.1502       4584.8857          0.1752          1.0000          0.1837
 3135.1001          2.4200         19.7428          0.1473       4585.1206          0.1722          1.0000          0.1888
 3135.2000          2.4224         19.6227          0.1476       4599.5952          0.1708          1.0000          0.1859
 3135.3000          2.4227         19.0963          0.1494       4619.7007          0.1709          1.0000          0.1731
 3135.4001          2.4102         18.4298          0.1514       4623.9219          0.1788          1.0000          0.1569
 3135.5000          2.4096         17.8033          0.1561       4613.4355          0.1794          1.0000          0.1415
 3135.6001          2.4005         17.0644          0.1594       4603.7222          0.1853          1.0000          0.1235
 3135.7000          2.3776         16.2424          0.1624       4582.6113          0.1995          1.0000          0.1035
 3135.8000          2.3639         15.6698          0.1661       4546.3833          0.2081          1.0000          0.0895
 3135.9001          2.3610         15.6901          0.1678       4488.4771          0.2099          1.0000          0.0900
 3136.0000          2.3561         16.4364          0.1673       4423.2632          0.2125          1.0000          0.1082
 3136.1001          2.3597         17.5170          0.1691       4370.7261          0.2098          1.0000          0.1346
 3136.2000          2.3598         18.5606          0.1675       4335.1675          0.2093          1.0000          0.1600
 3136.3000          2.3717         19.2810          0.1651       4330.7329          0.2017          1.0000          0.1776
 3136.4001          2.3820         19.3917          0.1608       4357.3843          0.1954          1.0000          0.1803
 3136.5000          2.3905         19.3549          0.1589       4392.5449          0.1903          1.0000          0.1794
 3136.6001          2.3972         19.3087          0.1562       4432.1201          0.1863          1.0000          0.1783
 3136.7000          2.4024         18.9023          0.1582       4455.1377          0.1833          1.0000          0.1683
 3136.8000          2.3920         18.4775          0.1607       4460.6528          0.1898          1.0000          0.1580
 3136.9001          2.3800         18.1442          0.1595       4463.4473          0.1972          1.0000          0.1499
 3137.0000          2.3741         17.8033          0.1627       4460.0332          0.2010          1.0000          0.1415
 3137.1001          2.3720         17.7017          0.1610       4467.7930          0.2023          1.0000          0.1391
 3137.2000          2.3670         17.7017          0.1605       4474.2529          0.2053          1.0000          0.1391
 3137.3000          2.3645         17.7201          0.1594       4477.0264          0.2068          1.0000          0.1395
 3137.4001          2.3673         17.7196          0.1599       4492.8262          0.2051          1.0000          0.1395
 3137.5000          2.3740         17.4985          0.1599       4509.6162          0.2012          1.0000          0.1341
