~VERSION INFORMATION
 VERS.                          2.0   : CWLS LOG ASCII STANDARD - VERSION 2.0
 WRAP.                          NO    : ONE LINE PER DEPTH STEP
#
~Well Information Section
#MNEM     .UNIT     DATA                DESCRIPTION
#-----    -----     --------            --------------
 STRT     .M        359.0000            : START DEPTH
 STOP     .M        3300.0000           : END DEPTH
 STEP     .M        0.1000              : INCREMENT DEPTH
 NULL     .         -999.2500           : NULL VALUE
 COMP     .                              :
 WELL     .         KTB-1               : WELL NAME
 EKB      .M        47.3000             : KELLY BUSHING ELEVATION
 EGL      .M        0.0000              : GROUND LEVEL ELEVATION
 EPD      .M        0.0000              : PERMANENT DATUM ELEVATION
 FLD      .                              :
 LOC      . X = 554114.2800 Y = 9205184.3100: WELL LOCATION
 PROV     .                              :
 SRVC     .                              :
 PROV     .                              :
 DATE     .                              :
 API      .                              :
#
~Curve Information Section
#MNEM     .UNIT               Curve #DESCRIPTION
#-----    -----               ----   --------------
 DEPTH    .M                  : 1     Name = Domain Curve - Type = DEPTH
 RHOB     .g/cc               : 2     Name = Density_1 - Type = Density
 GR       .gapi               : 3     Name = Gamma Ray_1 - Type = Gamma Ray
 NPHI     .v/v                : 4     Name = Neutron Porosity_1 - Type = Neutron Porosity
 DT       .m/s                : 5     Name = P-wave_1 - Type = P-wave
 PHIE  .fraction           : 6     Name = PHIE - Type = Porosity
 SW  .0.Sw               : 7     Name = SW - Type = Water Saturatio
 VCL  .fraction           : 8     Name = VCL - Type = Volumetric
~A (ASCII LOG DATA)
# ...
 3018.8000          2.4311         16.1870          0.1564       4845.1631          0.1672          1.0000          0.1021
 3018.9001          2.4155         15.5952          0.1623       4761.2446          0.1769          1.0000          0.0877
 3019.0000          2.4048         15.3188          0.1632       4685.6841          0.1835          1.0000          0.0809
 3019.1001          2.3873         15.2450          0.1634       4631.4517          0.1941          1.0000          0.0791
 3019.2000          2.3780         15.0603          0.1624       4606.6934          0.1999          1.0000          0.0746
 3019.3000          2.3703         14.9402          0.1610       4608.9639          0.2046          1.0000          0.0717
 3019.4001          2.3642         15.2182          0.1633       4620.9839          0.2082          1.0000          0.0785
 3019.5000          2.3587         15.5682          0.1604       4633.2607          0.2113          1.0000          0.0870
 3019.6001          2.3577         15.6975          0.1620       4636.9263          0.2119          1.0000          0.0902
 3019.7000          2.3630         15.9099          0.1590       4636.1436          0.2086          1.0000          0.0954
 3019.8000          2.3695         16.0947          0.1561       4638.8740          0.2045          1.0000          0.0999
 3019.9001          2.3840         15.9833          0.1511       4665.1641          0.1958          1.0000          0.0972
 3020.0000          2.3987         15.7991          0.1465       4723.1284          0.1870          1.0000          0.0927
 3020.1001          2.4196         15.6883          0.1411       4795.6953          0.1744          1.0000          0.0900
 3020.2000          2.4344         15.8084          0.1383       4860.6704          0.1653          1.0000          0.0929
 3020.3000          2.4415         16.0208          0.1389       4878.9541          0.1609          1.0000          0.0981
 3020.4001          2.4540         15.9747          0.1403       4828.9858          0.1534          1.0000          0.0969
 3020.5000          2.4625         16.0115          0.1435       4724.3726          0.1482          1.0000          0.0978
 3020.6001          2.4640         16.2055          0.1457       4588.1299          0.1472          1.0000          0.1026
 3020.7000          2.4630         16.2055          0.1491       4469.7324          0.1478          1.0000          0.1026
 3020.8000          2.4613         16.1963          0.1519       4395.2813          0.1488          1.0000          0.1023
 3020.9001          2.4672         16.1591          0.1541       4387.1489          0.1453          1.0000          0.1014
 3021.0000          2.4689         16.0854          0.1557       4450.7202          0.1443          1.0000          0.0996
 3021.1001          2.4625         16.3071          0.1531       4552.9165          0.1481          1.0000          0.1051
 3021.2000          2.4542         16.6026          0.1510       4665.3369          0.1530          1.0000          0.1123
 3021.3000          2.4508         17.0644          0.1470       4743.9097          0.1548          1.0000          0.1235
 3021.4001          2.4508         17.8874          0.1455       4787.0435          0.1544          1.0000          0.1436
 3021.5000          2.4483         18.2928          0.1469       4788.0562          0.1558          1.0000          0.1535
 3021.6001          2.4420         18.1727          0.1450       4766.3057          0.1596          1.0000          0.1506
 3021.7000          2.4367         17.9788          0.1446       4750.2241          0.1629          1.0000          0.1458
 3021.8000          2.4415         17.7109          0.1449       4709.5249          0.1602          1.0000          0.1393
 3021.9001          2.4389         17.4327          0.1462       4660.9214          0.1619          1.0000          0.1325
 3022.0000          2.4291         16.9443          0.1489       4608.3784          0.1680          1.0000          0.1206
 3022.1001          2.4234         16.4272          0.1520       4552.3931          0.1717          1.0000          0.1080
 3022.2000          2.4125         16.1778          0.1564       4535.9370          0.1784          1.0000          0.1019
 3022.3000          2.4126         16.0854          0.1565       4545.9429          0.1784          1.0000          0.0996
 3022.4001          2.4068         16.0855          0.1574       4592.3325          0.1819          1.0000          0.0996
 3022.5000          2.4108         16.1131          0.1575       4660.2583          0.1795          1.0000          0.1003
 3022.6001          2.4207         16.1685          0.1553       4717.6528          0.1735          1.0000          0.1017
 3022.7000          2.4158         16.1963          0.1565       4782.3989          0.1764          1.0000          0.1023
 3022.8000          2.4170         16.3163          0.1559       4812.6118          0.1756          1.0000          0.1053
 3022.9001          2.4181         16.4454          0.1544       4812.3008          0.1749          1.0000          0.1084
 3023.0000          2.4149         16.3717          0.1573       4791.1270          0.1769          1.0000          0.1066
 3023.1001          2.4163         16.2978          0.1554       4757.1631          0.1761          1.0000          0.1048
 3023.2000          2.4127         16.3810          0.1542       4731.9785          0.1782          1.0000          0.1069
 3023.3000          2.4112         16.4641          0.1519       4721.9063          0.1791          1.0000          0.1089
 3023.4001          2.4176         16.4176          0.1501       4725.1704          0.1752          1.0000          0.1078
 3023.5000          2.4218         16.3071          0.1476       4740.0225          0.1727          1.0000          0.1051
 3023.6001          2.4246         16.3163          0.1472       4770.4756          0.1710          1.0000          0.1053
 3023.7000          2.4197         16.3810          0.1508       4801.9966          0.1740          1.0000          0.1069
 3023.8000          2.4173         16.1963          0.1530       4823.6699          0.1755          1.0000          0.1023
 3023.9001          2.4105         15.8818          0.1535       4804.6265          0.1798          1.0000          0.0947
 3024.0000          2.4065         15.6606          0.1552       4740.9805          0.1823          1.0000          0.0893
 3024.1001          2.4036         15.4666          0.1554       4654.5151          0.1842          1.0000          0.0846
 3024.2000          2.3966         15.3465          0.1556       4573.9600          0.1885          1.0000          0.0816
 3024.3000          2.3994         15.1988          0.1549       4531.6143          0.1868          1.0000          0.0780
 3024.4001          2.4052         14.9401          0.1527       4541.9937          0.1834          1.0000          0.0717
 3024.5000          2.4171         14.8848          0.1478       4600.2686          0.1762          1.0000          0.0704
 3024.6001          2.4294         15.0418          0.1427       4680.1514          0.1687          1.0000          0.0742
 3024.7000          2.4410         15.1896          0.1392       4766.7529          0.1616          1.0000          0.0778
 3024.8000          2.4519         15.2819          0.1332       4840.5615          0.1550          1.0000          0.0800
 3024.9001          2.4580         15.2817          0.1299       4894.3931          0.1513          1.0000          0.0800
 3025.0000          2.4607         15.1896          0.1282       4947.7788          0.1497          1.0000          0.0778
 3025.1001          2.4637         15.1157          0.1264       4977.2451          0.1479          1.0000          0.0760
 3025.2000          2.4500         15.0141          0.1264       4998.4668          0.1562          1.0000          0.0735
 3025.3000          2.4405         14.8663          0.1276       5004.0220          0.1621          1.0000          0.0699
