~VERSION INFORMATION
 VERS.                          2.0   : CWLS LOG ASCII STANDARD - VERSION 2.0
 WRAP.                          NO    : ONE LINE PER DEPTH STEP
#
~Well Information Section
#MNEM     .UNIT     DATA                DESCRIPTION
#-----    -----     --------            --------------
 STRT     .M        359.0000            : START DEPTH
 STOP     .M        3300.0000           : END DEPTH
 STEP     .M        0.1000              : INCREMENT DEPTH
 NULL     .         -999.2500           : NULL VALUE
 COMP     .                              :
 WELL     .         KTB-1               : WELL NAME
 EKB      .M        47.3000             : KELLY BUSHING ELEVATION
 EGL      .M        0.0000              : GROUND LEVEL ELEVATION
 EPD      .M        0.0000              : PERMANENT DATUM ELEVATION
 FLD      .                              :
 LOC      . X = 554114.2800 Y = 9205184.3100: WELL LOCATION
 PROV     .                              :
 SRVC     .                              :
 PROV     .                              :
 DATE     .                              :
 API      .                              :
#
~Curve Information Section
#MNEM     .UNIT               Curve #DESCRIPTION
#-----    -----               ----   --------------
 DEPTH    .M                  : 1     Name = Domain Curve - Type = DEPTH
 RHOB     .g/cc               : 2     Name = Density_1 - Type = Density
 GR       .gapi               : 3     Name = Gamma Ray_1 - Type = Gamma Ray
 NPHI     .v/v                : 4     Name = Neutron Porosity_1 - Type = Neutron Porosity
 DT       .m/s                : 5     Name = P-wave_1 - Type = P-wave
 PHIE  .fraction           : 6     Name = PHIE - Type = Porosity
 SW  .0.Sw               : 7     Name = SW - Type = Water Saturatio
 VCL  .fraction           : 8     Name = VCL - Type = Volumetric
~A (ASCII LOG DATA)
# ...
 2794.4001          2.6154         19.2245          0.0362       5366.0947          0.0449          0.5890          0.1762
 2794.5000          2.6225         18.7638          0.0337       5498.1528          0.0416          0.5950          0.1650
 2794.6001          2.6298         18.3390          0.0332       5603.3325          0.0388          0.6166          0.1546
 2794.7000          2.6354         18.0526          0.0340       5653.9409          0.0364          0.6506          0.1476
 2794.8000          2.6304         17.7848          0.0329       5668.0298          0.0383          0.6107          0.1411
 2794.9001          2.6290         17.5163          0.0311       5675.3940          0.0387          0.5918          0.1346
 2795.0000          2.6273         17.2214          0.0300       5674.5508          0.0394          0.5700          0.1274
 2795.1001          2.6411         17.1568          0.0304       5694.6841          0.0336          0.6524          0.1258
 2795.2000          2.6474         17.2584          0.0330       5705.2583          0.0310          0.7048          0.1283
 2795.3000          2.6491         17.1106          0.0380       5691.6748          0.0306          0.7393          0.1246
 2795.4001          2.6286         16.8793          0.0453       5673.6992          0.0395          0.6167          0.1190
 2795.5000          2.6038         16.7042          0.0540       5614.7383          0.0524          0.5085          0.1147
 2795.6001          2.5618         16.4641          0.0652       5527.8979          0.0737          0.3918          0.1089
 2795.7000          2.5283         16.1039          0.0735       5390.8354          0.0911          0.3379          0.1001
 2795.8000          2.5078         15.6883          0.0817       5217.3115          0.1008          0.3214          0.0900
 2795.9001          2.4971         15.3829          0.0877       5048.7813          0.1041          0.3208          0.0825
 2796.0000          2.4907         15.1526          0.0898       4921.8687          0.1048          0.3244          0.0769
 2796.1001          2.4840         14.8201          0.0933       4851.3716          0.1073          0.3242          0.0688
 2796.2000          2.4761         14.5154          0.0989       4822.3345          0.1123          0.3208          0.0614
 2796.3000          2.4730         14.5246          0.1075       4801.7017          0.1164          0.3234          0.0616
 2796.4001          2.4595         14.6724          0.1193       4748.9028          0.1247          0.3175          0.0652
 2796.5000          2.4487         14.6908          0.1331       4659.6670          0.1301          0.3200          0.0656
 2796.6001          2.4286         14.6447          0.1470       4543.1240          0.1388          0.3129          0.0645
 2796.7000          2.4123         14.6077          0.1523       4434.6675          0.1466          0.3049          0.0636
 2796.8000          2.4020         14.6447          0.1533       4354.8579          0.1511          0.3000          0.0645
 2796.9001          2.4007         14.8116          0.1480       4300.7852          0.1515          0.2992          0.0686
 2797.0000          2.4045         15.0972          0.1363       4279.0957          0.1461          0.3070          0.0755
 2797.1001          2.4097         15.4759          0.1261       4279.0601          0.1417          0.3115          0.0848
 2797.2000          2.4130         15.8638          0.1179       4295.0566          0.1385          0.3123          0.0942
 2797.3000          2.4155         16.2055          0.1124       4330.4800          0.1361          0.3105          0.1026
 2797.4001          2.4266         16.2975          0.1116       4373.2324          0.1325          0.3103          0.1048
 2797.5000          2.4440         16.1685          0.1066       4416.2583          0.1259          0.3156          0.1017
 2797.6001          2.4578         16.3625          0.1006       4466.2612          0.1185          0.3216          0.1064
 2797.7000          2.4655         16.7134          0.0914       4524.0742          0.1131          0.3206          0.1150
 2797.8000          2.4849         16.5842          0.0825       4596.5156          0.1024          0.3347          0.1118
 2797.9001          2.5115         16.2418          0.0731       4709.0356          0.0902          0.3617          0.1035
 2798.0000          2.5334         16.0023          0.0645       4845.1318          0.0811          0.3922          0.0976
 2798.1001          2.5420         15.8638          0.0596       5019.6475          0.0777          0.4103          0.0942
 2798.2000          2.5475         15.8268          0.0591       5179.1636          0.0760          0.4287          0.0933
 2798.3000          2.5518         15.7160          0.0608       5277.3735          0.0753          0.4469          0.0906
 2798.4001          2.5520         15.8370          0.0642       5302.8379          0.0749          0.4600          0.0936
 2798.5000          2.5473         16.2147          0.0646       5232.7168          0.0776          0.4486          0.1028
 2798.6001          2.5468         16.2147          0.0604       5160.7485          0.0772          0.4537          0.1028
 2798.7000          2.5530         16.0762          0.0591       5116.8242          0.0744          0.4768          0.0994
 2798.8000          2.5505         16.1316          0.0591       5126.8252          0.0754          0.4833          0.1008
 2798.9001          2.5450         16.0851          0.0620       5197.3286          0.0782          0.4853          0.0996
 2799.0000          2.5321         15.9654          0.0685       5262.0674          0.0844          0.4742          0.0967
 2799.1001          2.5267         15.7252          0.0740       5265.1675          0.0882          0.4786          0.0909
 2799.2000          2.5234         15.3373          0.0782       5180.2026          0.0917          0.4763          0.0814
 2799.3000          2.5105         15.1065          0.0814       5028.6328          0.0971          0.4517          0.0758
 2799.4001          2.5007         15.0881          0.0802       4889.4688          0.1006          0.4269          0.0753
 2799.5000          2.5027         15.1249          0.0734       4810.5449          0.0983          0.4157          0.0762
 2799.6001          2.5208         15.1526          0.0657       4804.3730          0.0885          0.4268          0.0769
 2799.7000          2.5438         15.2635          0.0515       4871.0640          0.0780          0.4403          0.0796
 2799.8000          2.5648         15.5497          0.0389       4969.3652          0.0682          0.4510          0.0866
 2799.9001          2.5928         15.9197          0.0292       5111.3115          0.0553          0.4919          0.0956
 2800.0000          2.6206         16.1039          0.0229       5285.1426          0.0430          0.5650          0.1001
 2800.1001          2.6509         16.1316          0.0200       5465.5391          0.0300          0.7335          0.1008
 2800.2000          2.6732         16.2886          0.0189       5666.4805          0.0203          0.9909          0.1046
 2800.3000          2.6767         16.5749          0.0196       5831.4277          0.0181          1.0000          0.1116
 2800.4001          2.6733         16.8707          0.0201       5964.7837          0.0196          0.9589          0.1188
 2800.5000          2.6716         16.9905          0.0215       6073.3340          0.0204          0.9374          0.1217
 2800.6001          2.6508         17.0644          0.0223       6109.7959          0.0291          0.6937          0.1235
 2800.7000          2.6343         17.2861          0.0238       6087.2710          0.0363          0.6038          0.1289
 2800.8000          2.6155         17.3969          0.0282       6000.4961          0.0447          0.5428          0.1316
 2800.9001          2.5906         17.3137          0.0343       5861.1372          0.0560          0.4832          0.1296
