~VERSION INFORMATION
 VERS.                          2.0   : CWLS LOG ASCII STANDARD - VERSION 2.0
 WRAP.                          NO    : ONE LINE PER DEPTH STEP
#
~Well Information Section
#MNEM     .UNIT     DATA                DESCRIPTION
#-----    -----     --------            --------------
 STRT     .M        359.0000            : START DEPTH
 STOP     .M        3300.0000           : END DEPTH
 STEP     .M        0.1000              : INCREMENT DEPTH
 NULL     .         -999.2500           : NULL VALUE
 COMP     .                              :
 WELL     .         KTB-1               : WELL NAME
 EKB      .M        47.3000             : KELLY BUSHING ELEVATION
 EGL      .M        0.0000              : GROUND LEVEL ELEVATION
 EPD      .M        0.0000              : PERMANENT DATUM ELEVATION
 FLD      .                              :
 LOC      . X = 554114.2800 Y = 9205184.3100: WELL LOCATION
 PROV     .                              :
 SRVC     .                              :
 PROV     .                              :
 DATE     .                              :
 API      .                              :
#
~Curve Information Section
#MNEM     .UNIT               Curve #DESCRIPTION
#-----    -----               ----   --------------
 DEPTH    .M                  : 1     Name = Domain Curve - Type = DEPTH
 RHOB     .g/cc               : 2     Name = Density_1 - Type = Density
 GR       .gapi               : 3     Name = Gamma Ray_1 - Type = Gamma Ray
 NPHI     .v/v                : 4     Name = Neutron Porosity_1 - Type = Neutron Porosity
 DT       .m/s                : 5     Name = P-wave_1 - Type = P-wave
 PHIE  .fraction           : 6     Name = PHIE - Type = Porosity
 SW  .0.Sw               : 7     Name = SW - Type = Water Saturatio
 VCL  .fraction           : 8     Name = VCL - Type = Volumetric
~A (ASCII LOG DATA)
# ...
 3243.2000          2.3766         16.3348          0.1479       4314.2310          0.2001          1.0000          0.1057
 3243.3000          2.3788         16.5657          0.1466       4305.8022          0.1987          1.0000          0.1114
 3243.4001          2.3827         16.7785          0.1458       4311.9263          0.1962          1.0000          0.1165
 3243.5000          2.3866         16.9443          0.1491       4347.9443          0.1938          1.0000          0.1206
 3243.6001          2.3835         16.9998          0.1523       4395.3506          0.1956          1.0000          0.1219
 3243.7000          2.3787         16.9443          0.1525       4456.7007          0.1985          1.0000          0.1206
 3243.8000          2.3684         16.7689          0.1542       4532.7935          0.2049          1.0000          0.1163
 3243.9001          2.3611         16.6763          0.1556       4589.7490          0.2093          1.0000          0.1141
 3244.0000          2.3592         16.6119          0.1576       4622.1943          0.2105          1.0000          0.1125
 3244.1001          2.3585         16.6303          0.1597       4631.1143          0.2109          1.0000          0.1129
 3244.2000          2.3565         16.9259          0.1624       4623.9897          0.2120          1.0000          0.1201
 3244.3000          2.3613         17.2584          0.1628       4616.6079          0.2089          1.0000          0.1283
 3244.4001          2.3707         17.3041          0.1605       4586.9585          0.2032          1.0000          0.1294
 3244.5000          2.3802         17.1291          0.1580       4537.5303          0.1975          1.0000          0.1251
 3244.6001          2.3898         17.0644          0.1539       4457.0723          0.1918          1.0000          0.1235
 3244.7000          2.3843         17.3322          0.1494       4392.6147          0.1950          1.0000          0.1301
 3244.8000          2.3871         17.8771          0.1503       4382.3325          0.1930          1.0000          0.1433
 3244.9001          2.3853         18.4230          0.1535       4441.6523          0.1939          1.0000          0.1566
 3245.0000          2.3855         18.8099          0.1567       4552.5083          0.1936          1.0000          0.1661
 3245.1001          2.3814         19.2902          0.1586       4622.2646          0.1958          1.0000          0.1778
 3245.2000          2.3836         19.9921          0.1602       4640.7739          0.1942          1.0000          0.1949
 3245.3000          2.3818         20.3708          0.1588       4577.0371          0.1951          1.0000          0.2042
 3245.4001          2.3875         20.1943          0.1569       4500.8130          0.1917          1.0000          0.1999
 3245.5000          2.3870         19.7705          0.1586       4471.0703          0.1922          1.0000          0.1895
 3245.6001          2.3890         19.1978          0.1607       4480.7183          0.1913          1.0000          0.1756
 3245.7000          2.3852         18.7176          0.1650       4531.0557          0.1938          1.0000          0.1638
 3245.8000          2.3771         18.1912          0.1674       4553.3789          0.1989          1.0000          0.1510
 3245.9001          2.3702         17.5072          0.1679       4553.1064          0.2034          1.0000          0.1343
 3246.0000          2.3625         17.2953          0.1682       4519.4990          0.2082          1.0000          0.1292
 3246.1001          2.3517         17.3969          0.1683       4463.1030          0.2147          1.0000          0.1316
 3246.2000          2.3429         17.2122          0.1701       4435.9902          0.2201          1.0000          0.1271
 3246.3000          2.3329         16.8520          0.1712       4415.0176          0.2263          1.0000          0.1183
 3246.4001          2.3284         16.7236          0.1731       4405.6909          0.2291          1.0000          0.1152
 3246.5000          2.3226         17.1013          0.1777       4406.9551          0.2325          1.0000          0.1244
 3246.6001          2.3152         17.5539          0.1818       4400.0146          0.2368          1.0000          0.1355
 3246.7000          2.3080         17.6832          0.1848       4383.4106          0.2411          1.0000          0.1386
 3246.8000          2.3086         17.7663          0.1847       4360.1719          0.2407          1.0000          0.1406
 3246.9001          2.3116         18.0913          0.1857       4329.3892          0.2387          1.0000          0.1485
 3247.0000          2.3108         18.7823          0.1857       4288.2710          0.2389          1.0000          0.1654
 3247.1001          2.3099         19.2348          0.1852       4242.1006          0.2392          1.0000          0.1765
 3247.2000          2.3164         19.0593          0.1854       4194.5742          0.2353          1.0000          0.1722
 3247.3000          2.3226         18.8284          0.1810       4154.9038          0.2317          1.0000          0.1665
 3247.4001          2.3360         18.8476          0.1775       4132.6992          0.2236          1.0000          0.1670
 3247.5000          2.3444         19.1240          0.1676       4133.9854          0.2183          1.0000          0.1738
 3247.6001          2.3595         19.5488          0.1583       4135.6011          0.2090          1.0000          0.1841
 3247.7000          2.3815         20.1030          0.1475       4157.9590          0.1954          1.0000          0.1976
 3247.8000          2.4000         20.9434          0.1324       4197.5723          0.1838          1.0000          0.2181
 3247.9001          2.4218         21.7663          0.1178       4264.9653          0.1702          1.0000          0.2382
 3248.0000          2.4372         22.1256          0.1084       4409.1479          0.1607          1.0000          0.2470
 3248.1001          2.4516         22.1995          0.1042       4583.0522          0.1519          1.0000          0.2488
 3248.2000          2.4619         22.2272          0.1021       4780.0220          0.1457          1.0000          0.2494
 3248.3000          2.4692         21.9778          0.1029       4961.1641          0.1414          1.0000          0.2434
 3248.4001          2.4719         21.6819          0.1038       5075.0410          0.1399          1.0000          0.2362
 3248.5000          2.4727         21.5160          0.1042       5146.6055          0.1395          1.0000          0.2321
 3248.6001          2.4800         21.3036          0.1055       5166.5049          0.1351          1.0000          0.2269
 3248.7000          2.4812         21.1374          0.1042       5165.5767          0.1345          1.0000          0.2229
 3248.8000          2.4819         20.8234          0.1025       5159.2632          0.1342          1.0000          0.2152
 3248.9001          2.4719         20.5463          0.1006       5149.5361          0.1404          1.0000          0.2084
 3249.0000          2.4638         20.5463          0.1024       5171.1851          0.1453          1.0000          0.2084
 3249.1001          2.4684         20.4447          0.1050       5220.5098          0.1426          1.0000          0.2060
 3249.2000          2.4669         20.2785          0.1110       5258.4819          0.1436          1.0000          0.2019
 3249.3000          2.4510         20.3523          0.1174       5260.7871          0.1532          1.0000          0.2037
 3249.4001          2.4439         20.5932          0.1195       5182.8672          0.1573          1.0000          0.2096
 3249.5000          2.4415         20.8880          0.1243       5022.4922          0.1587          1.0000          0.2168
 3249.6001          2.4419         20.9988          0.1251       4845.0322          0.1584          1.0000          0.2195
 3249.7000          2.4385         20.6479          0.1261       4699.8379          0.1606          1.0000          0.2109
