~VERSION INFORMATION
 VERS.                          2.0   : CWLS LOG ASCII STANDARD - VERSION 2.0
 WRAP.                          NO    : ONE LINE PER DEPTH STEP
#
~Well Information Section
#MNEM     .UNIT     DATA                DESCRIPTION
#-----    -----     --------            --------------
 STRT     .M        359.0000            : START DEPTH
 STOP     .M        3300.0000           : END DEPTH
 STEP     .M        0.1000              : INCREMENT DEPTH
 NULL     .         -999.2500           : NULL VALUE
 COMP     .                              :
 WELL     .         KTB-1               : WELL NAME
 EKB      .M        47.3000             : KELLY BUSHING ELEVATION
 EGL      .M        0.0000              : GROUND LEVEL ELEVATION
 EPD      .M        0.0000              : PERMANENT DATUM ELEVATION
 FLD      .                              :
 LOC      . X = 554114.2800 Y = 9205184.3100: WELL LOCATION
 PROV     .                              :
 SRVC     .                              :
 PROV     .                              :
 DATE     .                              :
 API      .                              :
#
~Curve Information Section
#MNEM     .UNIT               Curve #DESCRIPTION
#-----    -----               ----   --------------
 DEPTH    .M                  : 1     Name = Domain Curve - Type = DEPTH
 RHOB     .g/cc               : 2     Name = Density_1 - Type = Density
 GR       .gapi               : 3     Name = Gamma Ray_1 - Type = Gamma Ray
 NPHI     .v/v                : 4     Name = Neutron Porosity_1 - Type = Neutron Porosity
 DT       .m/s                : 5     Name = P-wave_1 - Type = P-wave
 PHIE  .fraction           : 6     Name = PHIE - Type = Porosity
 SW  .0.Sw               : 7     Name = SW - Type = Water Saturatio
 VCL  .fraction           : 8     Name = VCL - Type = Volumetric
~A (ASCII LOG DATA)
# ...
 2761.4001          2.5875         44.7239          0.3192       3553.0569          0.0001          1.0000          0.4387
 2761.5000          2.6063         44.0605          0.3149       3599.0166          0.0001          1.0000          0.4159
 2761.6001          2.6248         44.0790          0.3087       3581.1719          0.0001          1.0000          0.4165
 2761.7000          2.6218         44.3283          0.3043       3538.6560          0.0001          1.0000          0.4251
 2761.8000          2.6216         44.0512          0.2910       3523.3083          0.0001          1.0000          0.4156
 2761.9001          2.6258         43.1711          0.2850       3515.7922          0.0001          1.0000          0.3852
 2762.0000          2.6327         42.0194          0.2751       3544.9155          0.0001          1.0000          0.3455
 2762.1001          2.6336         41.3452          0.2628       3584.1409          0.0001          1.0000          0.3222
 2762.2000          2.6377         41.4283          0.2543       3625.3301          0.0001          1.0000          0.3251
 2762.3000          2.6390         40.8834          0.2483       3674.2236          0.0001          1.0000          0.3063
 2762.4001          2.6435         39.5785          0.2463       3705.1775          0.0001          1.0000          0.2613
 2762.5000          2.6348         38.5006          0.2404       3733.4092          0.0001          1.0000          0.2242
 2762.6001          2.6377         38.0018          0.2361       3755.6418          0.0001          1.0000          0.2070
 2762.7000          2.6390         38.3159          0.2339       3771.0220          0.0001          1.0000          0.2178
 2762.8000          2.6318         38.7776          0.2385       3779.2136          0.0001          1.0000          0.2337
 2762.9001          2.6300         39.0468          0.2456       3759.5894          0.0001          1.0000          0.2429
 2763.0000          2.6318         39.5811          0.2468       3742.8069          0.0001          1.0000          0.2614
 2763.1001          2.6237         40.3200          0.2493       3749.1743          0.0001          1.0000          0.2869
 2763.2000          2.6292         41.3821          0.2524       3781.6611          0.0001          1.0000          0.3235
 2763.3000          2.5958         42.4996          0.2594       3854.7585          0.0001          1.0000          0.3621
 2763.4001          2.4949         43.2673          0.2813       3927.7466          0.0499          1.0000          0.3885
 2763.5000          2.4176         43.7280          0.3149       4009.5132          0.1056          1.0000          0.4044
 2763.6001          2.3484         44.0697          0.3485       4119.7266          0.1535          0.8417          0.4162
 2763.7000          2.2866         44.7809          0.3754       4234.5273          0.1979          0.6722          0.4407
 2763.8000          2.3084         45.3535          0.3835       4319.3667          0.1870          0.7289          0.4605
 2763.9001          2.3693         45.1504          0.3652       4391.9248          0.1448          0.9532          0.4535
 2764.0000          2.4593         45.1965          0.3434       4448.8818          0.0827          1.0000          0.4551
 2764.1001          2.4618         45.4089          0.3253       4501.4312          0.0818          1.0000          0.4624
 2764.2000          2.4078         44.9748          0.3254       4550.4355          0.1175          1.0000          0.4474
 2764.3000          2.3599         44.7716          0.3383       4515.4614          0.1494          0.9373          0.4404
 2764.4001          2.3572         45.2825          0.3491       4343.1343          0.1536          0.9134          0.4580
 2764.5000          2.3605         46.4802          0.3633       4119.4648          0.1563          0.9034          0.4993
 2764.6001          2.3809         47.7363          0.3725       4016.0273          0.1475          0.9592          0.5426
 2764.7000          2.4238         48.0318          0.3591       3982.2212          0.1190          1.0000          0.5528
 2764.8000          2.4905         47.9487          0.3395       3997.9170          0.0723          1.0000          0.5500
 2764.9001          2.5238         48.0406          0.3290       3986.2324          0.0496          1.0000          0.5531
 2765.0000          2.5192         47.8563          0.3134       3858.6724          0.0520          1.0000          0.5468
 2765.1001          2.5274         47.2930          0.3008       3708.5752          0.0440          1.0000          0.5273
 2765.2000          2.5428         46.4802          0.2820       3653.2395          0.0299          1.0000          0.4993
 2765.3000          2.5995         45.7783          0.2745       3693.9993          0.0001          1.0000          0.4751
 2765.4001          2.6198         45.7600          0.2682       3780.8372          0.0001          1.0000          0.4745
 2765.5000          2.6098         45.8615          0.2707       3875.5400          0.0001          1.0000          0.4780
 2765.6001          2.6091         45.2888          0.2709       3893.9934          0.0001          1.0000          0.4582
 2765.7000          2.6218         44.6885          0.2753       3862.5894          0.0001          1.0000          0.4375
 2765.8000          2.6172         44.0420          0.2801       3821.2485          0.0001          1.0000          0.4152
 2765.9001          2.6171         42.8676          0.2766       3778.9387          0.0001          1.0000          0.3747
 2766.0000          2.6173         42.2410          0.2772       3756.6326          0.0001          1.0000          0.3531
 2766.1001          2.6336         42.2780          0.2756       3740.4558          0.0001          1.0000          0.3544
 2766.2000          2.6478         42.1025          0.2717       3722.7480          0.0001          1.0000          0.3484
 2766.3000          2.6510         41.9270          0.2738       3715.7681          0.0001          1.0000          0.3423
 2766.4001          2.6421         42.2434          0.2691       3707.0166          0.0001          1.0000          0.3532
 2766.5000          2.6464         43.2385          0.2742       3722.6389          0.0001          1.0000          0.3875
 2766.6001          2.6540         44.4299          0.2892       3757.3547          0.0001          1.0000          0.4286
 2766.7000          2.6474         45.1595          0.3063       3779.3169          0.0001          1.0000          0.4538
 2766.8000          2.6335         45.9723          0.3206       3782.4216          0.0001          1.0000          0.4818
 2766.9001          2.6220         47.2591          0.3247       3736.5537          0.0001          1.0000          0.5262
 2767.0000          2.6242         48.5213          0.3217       3678.5737          0.0001          1.0000          0.5697
 2767.1001          2.6224         49.4264          0.3174       3623.8862          0.0001          1.0000          0.6009
 2767.2000          2.6216         49.9713          0.3219       3570.0605          0.0001          1.0000          0.6197
 2767.3000          2.6307         50.6733          0.3235       3532.2708          0.0001          1.0000          0.6439
 2767.4001          2.6247         51.0037          0.3203       3499.7090          0.0001          1.0000          0.6553
 2767.5000          2.6318         50.1930          0.3240       3487.3147          0.0001          1.0000          0.6273
 2767.6001          2.6302         49.4634          0.3280       3498.5664          0.0001          1.0000          0.6022
 2767.7000          2.6341         49.7035          0.3342       3517.4250          0.0001          1.0000          0.6105
 2767.8000          2.6284         50.4331          0.3342       3524.7183          0.0001          1.0000          0.6356
 2767.9001          2.6327         51.0425          0.3321       3506.8567          0.0001          1.0000          0.6566
