~VERSION INFORMATION
 VERS.                          2.0   : CWLS LOG ASCII STANDARD - VERSION 2.0
 WRAP.                          NO    : ONE LINE PER DEPTH STEP
#
~Well Information Section
#MNEM     .UNIT     DATA                DESCRIPTION
#-----    -----     --------            --------------
 STRT     .M        359.0000            : START DEPTH
 STOP     .M        3300.0000           : END DEPTH
 STEP     .M        0.1000              : INCREMENT DEPTH
 NULL     .         -999.2500           : NULL VALUE
 COMP     .                              :
 WELL     .         KTB-1               : WELL NAME
 EKB      .M        47.3000             : KELLY BUSHING ELEVATION
 EGL      .M        0.0000              : GROUND LEVEL ELEVATION
 EPD      .M        0.0000              : PERMANENT DATUM ELEVATION
 FLD      .                              :
 LOC      . X = 554114.2800 Y = 9205184.3100: WELL LOCATION
 PROV     .                              :
 SRVC     .                              :
 PROV     .                              :
 DATE     .                              :
 API      .                              :
#
~Curve Information Section
#MNEM     .UNIT               Curve #DESCRIPTION
#-----    -----               ----   --------------
 DEPTH    .M                  : 1     Name = Domain Curve - Type = DEPTH
 RHOB     .g/cc               : 2     Name = Density_1 - Type = Density
 GR       .gapi               : 3     Name = Gamma Ray_1 - Type = Gamma Ray
 NPHI     .v/v                : 4     Name = Neutron Porosity_1 - Type = Neutron Porosity
 DT       .m/s                : 5     Name = P-wave_1 - Type = P-wave
 PHIE  .fraction           : 6     Name = PHIE - Type = Porosity
 SW  .0.Sw               : 7     Name = SW - Type = Water Saturatio
 VCL  .fraction           : 8     Name = VCL - Type = Volumetric
~A (ASCII LOG DATA)
# ...
 2906.6001          2.5242         16.3163          0.0705       5207.7729          0.0927          0.6078          0.1053
 2906.7000          2.5227         16.5103          0.0738       5103.2881          0.0932          0.6041          0.1100
 2906.8000          2.5308         17.1013          0.0747       4997.0083          0.0894          0.6188          0.1244
 2906.9001          2.5391         17.8687          0.0753       4952.0488          0.0854          0.6336          0.1431
 2907.0000          2.5376         18.2097          0.0737       4979.0576          0.0857          0.6238          0.1515
 2907.1001          2.5423         18.2097          0.0717       5028.4751          0.0838          0.6388          0.1515
 2907.2000          2.5394         18.0988          0.0738       5082.7363          0.0853          0.6376          0.1488
 2907.3000          2.5357         17.8494          0.0781       5078.2900          0.0875          0.6380          0.1427
 2907.4001          2.5313         17.4321          0.0862       4995.2964          0.0916          0.6231          0.1325
 2907.5000          2.5061         16.6950          0.0953       4894.8677          0.1042          0.5555          0.1145
 2907.6001          2.5001         16.1593          0.1034       4796.4121          0.1072          0.5382          0.1014
 2907.7000          2.4825         16.1501          0.1094       4727.6191          0.1135          0.5001          0.1012
 2907.8000          2.4748         16.2886          0.1125       4698.9976          0.1145          0.4850          0.1046
 2907.9001          2.4569         16.5944          0.1135       4691.1372          0.1200          0.4543          0.1120
 2908.0000          2.4603         17.0183          0.1146       4694.6260          0.1180          0.4561          0.1224
 2908.1001          2.4660         17.6001          0.1127       4700.3887          0.1165          0.4581          0.1366
 2908.2000          2.4735         18.5144          0.1117       4710.0347          0.1150          0.4626          0.1589
 2908.3000          2.4850         19.0870          0.1129       4722.5283          0.1112          0.4781          0.1729
 2908.4001          2.4937         18.9755          0.1125       4734.9409          0.1086          0.4871          0.1702
 2908.5000          2.4893         18.6991          0.1152       4737.6938          0.1105          0.4725          0.1634
 2908.6001          2.4773         18.2373          0.1205       4716.7910          0.1157          0.4428          0.1521
 2908.7000          2.4688         17.5816          0.1231       4669.9834          0.1199          0.4188          0.1361
 2908.8000          2.4505         16.8797          0.1272       4604.6675          0.1275          0.3871          0.1190
 2908.9001          2.4389         16.0377          0.1313       4530.1650          0.1328          0.3674          0.0985
 2909.0000          2.4284         15.3835          0.1305       4469.0381          0.1377          0.3547          0.0825
 2909.1001          2.4196         15.1803          0.1338       4425.4146          0.1417          0.3515          0.0776
 2909.2000          2.4149         15.3004          0.1354       4398.6938          0.1443          0.3572          0.0805
 2909.3000          2.4102         15.5128          0.1380       4384.9111          0.1465          0.3671          0.0857
 2909.4001          2.4062         15.4936          0.1394       4371.7646          0.1491          0.3777          0.0852
 2909.5000          2.4040         15.1803          0.1440       4358.1084          0.1516          0.3891          0.0776
 2909.6001          2.4051         14.9125          0.1478       4344.8076          0.1520          0.4045          0.0710
 2909.7000          2.4024         14.9125          0.1487       4340.6372          0.1530          0.4154          0.0710
 2909.8000          2.3986         15.0510          0.1497       4338.3574          0.1537          0.4235          0.0744
 2909.9001          2.3954         15.0508          0.1500       4333.0449          0.1541          0.4282          0.0744
 2910.0000          2.3960         14.9494          0.1488       4321.9448          0.1547          0.4280          0.0719
 2910.1001          2.3957         15.0510          0.1488       4311.5029          0.1555          0.4238          0.0744
 2910.2000          2.4110         15.3927          0.1415       4322.0313          0.1494          0.4353          0.0827
 2910.3000          2.4144         15.8823          0.1347       4362.7744          0.1464          0.4353          0.0947
 2910.4001          2.4211         16.4195          0.1274       4418.7642          0.1415          0.4437          0.1078
 2910.5000          2.4299         17.0736          0.1189       4474.7261          0.1359          0.4606          0.1237
 2910.6001          2.4427         18.0526          0.1169       4511.7188          0.1285          0.4913          0.1476
 2910.7000          2.4553         19.1332          0.1161       4524.1948          0.1224          0.5260          0.1740
 2910.8000          2.4487         20.1215          0.1174       4538.3887          0.1255          0.5295          0.1981
 2910.9001          2.4535         20.9629          0.1184       4556.0015          0.1240          0.5540          0.2186
 2911.0000          2.4587         21.3683          0.1158       4581.9292          0.1224          0.5775          0.2285
 2911.1001          2.4647         21.4514          0.1150       4612.3047          0.1205          0.5998          0.2305
 2911.2000          2.4674         21.5068          0.1137       4638.3799          0.1197          0.6127          0.2319
 2911.3000          2.4653         21.5253          0.1128       4660.1157          0.1208          0.6132          0.2323
 2911.4001          2.4690         21.3390          0.1118       4670.8394          0.1195          0.6226          0.2278
 2911.5000          2.4705         20.7125          0.1105       4678.6426          0.1190          0.6239          0.2125
 2911.6001          2.4710         19.9090          0.1093       4686.2241          0.1191          0.6232          0.1929
 2911.7000          2.4714         19.5119          0.1075       4699.4390          0.1190          0.6238          0.1832
 2911.8000          2.4712         19.5396          0.1057       4730.8848          0.1191          0.6237          0.1839
 2911.9001          2.4724         19.5576          0.1064       4762.0986          0.1187          0.6280          0.1843
 2912.0000          2.4658         19.3457          0.1063       4783.6899          0.1217          0.6186          0.1792
 2912.1001          2.4681         19.2533          0.1083       4789.0571          0.1211          0.6295          0.1769
 2912.2000          2.4700         19.4749          0.1090       4767.3789          0.1206          0.6403          0.1823
 2912.3000          2.4628         19.4657          0.1072       4733.0293          0.1239          0.6323          0.1821
 2912.4001          2.4646         18.9845          0.1088       4704.0015          0.1237          0.6432          0.1704
 2912.5000          2.4661         18.5606          0.1090       4680.3022          0.1236          0.6534          0.1600
 2912.6001          2.4608         18.3297          0.1097       4669.2969          0.1262          0.6490          0.1544
 2912.7000          2.4567         18.0988          0.1111       4670.8774          0.1284          0.6486          0.1488
 2912.8000          2.4516         17.8956          0.1140       4668.4878          0.1311          0.6483          0.1438
 2912.9001          2.4446         17.7756          0.1140       4667.1836          0.1345          0.6443          0.1409
 2913.0000          2.4431         17.7848          0.1134       4657.0117          0.1356          0.6485          0.1411
 2913.1001          2.4378         17.8587          0.1109       4649.5098          0.1378          0.6409          0.1429
