~VERSION INFORMATION
 VERS.                          2.0   : CWLS LOG ASCII STANDARD - VERSION 2.0
 WRAP.                          NO    : ONE LINE PER DEPTH STEP
#
~Well Information Section
#MNEM     .UNIT     DATA                DESCRIPTION
#-----    -----     --------            --------------
 STRT     .M        359.0000            : START DEPTH
 STOP     .M        3300.0000           : END DEPTH
 STEP     .M        0.1000              : INCREMENT DEPTH
 NULL     .         -999.2500           : NULL VALUE
 COMP     .                              :
 WELL     .         KTB-1               : WELL NAME
 EKB      .M        47.3000             : KELLY BUSHING ELEVATION
 EGL      .M        0.0000              : GROUND LEVEL ELEVATION
 EPD      .M        0.0000              : PERMANENT DATUM ELEVATION
 FLD      .                              :
 LOC      . X = 554114.2800 Y = 9205184.3100: WELL LOCATION
 PROV     .                              :
 SRVC     .                              :
 PROV     .                              :
 DATE     .                              :
 API      .                              :
#
~Curve Information Section
#MNEM     .UNIT               Curve #DESCRIPTION
#-----    -----               ----   --------------
 DEPTH    .M                  : 1     Name = Domain Curve - Type = DEPTH
 RHOB     .g/cc               : 2     Name = Density_1 - Type = Density
 GR       .gapi               : 3     Name = Gamma Ray_1 - Type = Gamma Ray
 NPHI     .v/v                : 4     Name = Neutron Porosity_1 - Type = Neutron Porosity
 DT       .m/s                : 5     Name = P-wave_1 - Type = P-wave
 PHIE  .fraction           : 6     Name = PHIE - Type = Porosity
 SW  .0.Sw               : 7     Name = SW - Type = Water Saturatio
 VCL  .fraction           : 8     Name = VCL - Type = Volumetric
~A (ASCII LOG DATA)
# ...
 2834.0000          2.4576         16.8797          0.1075       4584.4102          0.1189          0.2187          0.1190
 2834.1001          2.4595         17.2399          0.1105       4557.9614          0.1183          0.2234          0.1278
 2834.2000          2.4612         17.2122          0.1106       4556.1084          0.1182          0.2251          0.1271
 2834.3000          2.4588         17.0090          0.1129       4555.7271          0.1195          0.2231          0.1222
 2834.4001          2.4561         16.9071          0.1141       4547.4883          0.1208          0.2207          0.1197
 2834.5000          2.4595         16.7873          0.1145       4522.1816          0.1196          0.2214          0.1168
 2834.6001          2.4540         16.5934          0.1101       4489.9526          0.1215          0.2149          0.1120
 2834.7000          2.4560         16.5010          0.1085       4464.0244          0.1208          0.2128          0.1098
 2834.8000          2.4579         16.4825          0.1067       4444.9175          0.1192          0.2140          0.1093
 2834.9001          2.4651         16.3620          0.1041       4443.9990          0.1164          0.2197          0.1064
 2835.0000          2.4632         16.1685          0.1030       4455.4824          0.1180          0.2192          0.1017
 2835.1001          2.4802         16.0023          0.1002       4471.8379          0.1096          0.2394          0.0976
 2835.2000          2.4894         15.8361          0.0946       4498.7471          0.1066          0.2508          0.0936
 2835.3000          2.4953         15.7252          0.0930       4525.4785          0.1043          0.2612          0.0909
 2835.4001          2.4931         15.9020          0.0896       4569.5811          0.1050          0.2635          0.0951
 2835.5000          2.4975         16.4456          0.0889       4635.0151          0.1041          0.2673          0.1084
 2835.6001          2.4922         17.0275          0.0900       4713.1812          0.1057          0.2631          0.1226
 2835.7000          2.4795         17.3138          0.0900       4788.1992          0.1105          0.2517          0.1296
 2835.8000          2.4674         17.3322          0.0939       4828.0410          0.1149          0.2413          0.1301
 2835.9001          2.4643         17.5269          0.0992       4814.9946          0.1153          0.2371          0.1348
 2836.0000          2.4593         17.8033          0.1022       4754.3730          0.1166          0.2299          0.1415
 2836.1001          2.4562         17.5539          0.1032       4675.9580          0.1179          0.2233          0.1355
 2836.2000          2.4524         16.8982          0.1017       4593.5508          0.1189          0.2169          0.1195
 2836.3000          2.4609         16.3994          0.0982       4530.7314          0.1158          0.2171          0.1073
 2836.4001          2.4572         16.3164          0.0968       4496.6606          0.1172          0.2095          0.1053
 2836.5000          2.4621         16.3440          0.0933       4485.0898          0.1145          0.2095          0.1060
 2836.6001          2.4570         15.9931          0.0897       4492.1563          0.1164          0.2018          0.0974
 2836.7000          2.4544         15.4666          0.0911       4500.8325          0.1172          0.1967          0.0846
 2836.8000          2.4519         15.1803          0.0939       4501.2778          0.1182          0.1919          0.0776
 2836.9001          2.4548         14.9210          0.0961       4493.7988          0.1173          0.1913          0.0713
 2837.0000          2.4537         14.6354          0.0956       4496.3711          0.1178          0.1897          0.0643
 2837.1001          2.4557         14.5615          0.0956       4513.2954          0.1171          0.1912          0.0625
 2837.2000          2.4544         14.5985          0.0953       4542.5894          0.1179          0.1918          0.0634
 2837.3000          2.4591         14.7278          0.0962       4574.9897          0.1161          0.1975          0.0665
 2837.4001          2.4602         14.9499          0.0982       4591.4893          0.1161          0.2013          0.0719
 2837.5000          2.4566         15.1341          0.0994       4597.5625          0.1182          0.2032          0.0764
 2837.6001          2.4529         15.3743          0.1001       4598.6167          0.1198          0.2080          0.0823
 2837.7000          2.4513         15.5959          0.1007       4605.3218          0.1208          0.2153          0.0877
 2837.8000          2.4515         15.7806          0.1018       4622.6016          0.1215          0.2243          0.0922
 2837.9001          2.4464         15.9655          0.1028       4644.1201          0.1235          0.2314          0.0967
 2838.0000          2.4395         16.0023          0.1046       4662.2188          0.1274          0.2339          0.0976
 2838.1001          2.4343         16.2794          0.1082       4670.0410          0.1310          0.2355          0.1044
 2838.2000          2.4316         16.8243          0.1096       4670.2192          0.1325          0.2386          0.1177
 2838.3000          2.4314         17.1291          0.1140       4658.2212          0.1334          0.2407          0.1251
 2838.4001          2.4281         17.3975          0.1176       4636.1836          0.1346          0.2399          0.1316
 2838.5000          2.4281         17.6462          0.1204       4606.4355          0.1351          0.2393          0.1377
 2838.6001          2.4269         17.6924          0.1266       4564.7949          0.1358          0.2383          0.1388
 2838.7000          2.4230         17.7201          0.1277       4527.9521          0.1376          0.2358          0.1395
 2838.8000          2.4261         17.4154          0.1302       4500.0820          0.1369          0.2376          0.1321
 2838.9001          2.4209         16.6660          0.1321       4481.7290          0.1392          0.2344          0.1138
 2839.0000          2.4159         16.1501          0.1292       4474.4897          0.1417          0.2306          0.1012
 2839.1001          2.4118         15.9469          0.1289       4461.2998          0.1438          0.2263          0.0963
 2839.2000          2.4070         15.8176          0.1275       4439.8159          0.1454          0.2220          0.0931
 2839.3000          2.4055         15.8084          0.1225       4411.6689          0.1466          0.2191          0.0929
 2839.4001          2.4004         15.7345          0.1204       4380.9048          0.1485          0.2176          0.0911
 2839.5000          2.3961         15.7529          0.1167       4361.0703          0.1501          0.2201          0.0915
 2839.6001          2.3989         16.0947          0.1169       4348.1924          0.1499          0.2312          0.0999
 2839.7000          2.4000         16.6119          0.1213       4329.9941          0.1526          0.2427          0.1125
 2839.8000          2.4053         17.2861          0.1289       4288.1919          0.1540          0.2586          0.1289
 2839.9001          2.4088         17.7760          0.1353       4216.9702          0.1579          0.2700          0.1409
 2840.0000          2.4170         17.9326          0.1426       4138.6333          0.1578          0.2862          0.1447
 2840.1001          2.4205         18.1358          0.1466       4076.4465          0.1564          0.3018          0.1497
 2840.2000          2.4257         18.3759          0.1507       4054.7874          0.1538          0.3153          0.1555
 2840.3000          2.4310         18.5514          0.1494       4074.8171          0.1512          0.3252          0.1598
 2840.4001          2.4391         18.5138          0.1480       4116.2144          0.1470          0.3351          0.1589
 2840.5000          2.4438         18.2558          0.1476       4159.0029          0.1446          0.3389          0.1526
