~VERSION INFORMATION
 VERS.                          2.0   : CWLS LOG ASCII STANDARD - VERSION 2.0
 WRAP.                          NO    : ONE LINE PER DEPTH STEP
#
~Well Information Section
#MNEM     .UNIT     DATA                DESCRIPTION
#-----    -----     --------            --------------
 STRT     .M        359.0000            : START DEPTH
 STOP     .M        3300.0000           : END DEPTH
 STEP     .M        0.1000              : INCREMENT DEPTH
 NULL     .         -999.2500           : NULL VALUE
 COMP     .                              :
 WELL     .         KTB-1               : WELL NAME
 EKB      .M        47.3000             : KELLY BUSHING ELEVATION
 EGL      .M        0.0000              : GROUND LEVEL ELEVATION
 EPD      .M        0.0000              : PERMANENT DATUM ELEVATION
 FLD      .                              :
 LOC      . X = 554114.2800 Y = 9205184.3100: WELL LOCATION
 PROV     .                              :
 SRVC     .                              :
 PROV     .                              :
 DATE     .                              :
 API      .                              :
#
~Curve Information Section
#MNEM     .UNIT               Curve #DESCRIPTION
#-----    -----               ----   --------------
 DEPTH    .M                  : 1     Name = Domain Curve - Type = DEPTH
 RHOB     .g/cc               : 2     Name = Density_1 - Type = Density
 GR       .gapi               : 3     Name = Gamma Ray_1 - Type = Gamma Ray
 NPHI     .v/v                : 4     Name = Neutron Porosity_1 - Type = Neutron Porosity
 DT       .m/s                : 5     Name = P-wave_1 - Type = P-wave
 PHIE  .fraction           : 6     Name = PHIE - Type = Porosity
 SW  .0.Sw               : 7     Name = SW - Type = Water Saturatio
 VCL  .fraction           : 8     Name = VCL - Type = Volumetric
~A (ASCII LOG DATA)
# ...
 2721.8000       -999.2500         34.1320       -999.2500       2955.5476       -999.2500       -999.2500          0.0735
 2721.9001       -999.2500         34.1320       -999.2500       2955.6104       -999.2500       -999.2500          0.0735
 2722.0000       -999.2500         34.1320       -999.2500       2944.8821       -999.2500       -999.2500          0.0735
 2722.1001       -999.2500         34.1320       -999.2500       2946.1714       -999.2500       -999.2500          0.0735
 2722.2000       -999.2500         34.1320       -999.2500       2961.1091       -999.2500       -999.2500          0.0735
 2722.3000       -999.2500         34.1320       -999.2500       2968.5901       -999.2500       -999.2500          0.0735
 2722.4001       -999.2500         34.1320       -999.2500       2972.9001       -999.2500       -999.2500          0.0735
 2722.5000       -999.2500         34.1320       -999.2500       2978.2437       -999.2500       -999.2500          0.0735
 2722.6001       -999.2500         34.1320       -999.2500       2972.9333       -999.2500       -999.2500          0.0735
 2722.7000       -999.2500         34.1320       -999.2500       2960.9739       -999.2500       -999.2500          0.0735
 2722.8000       -999.2500         34.1320       -999.2500       2959.3123       -999.2500       -999.2500          0.0735
 2722.9001       -999.2500         34.1320       -999.2500       3401.2009       -999.2500       -999.2500          0.0735
 2723.0000       -999.2500         34.1320       -999.2500       3401.2009       -999.2500       -999.2500          0.0735
 2723.1001       -999.2500         34.1320       -999.2500       3401.2009       -999.2500       -999.2500          0.0735
 2723.2000       -999.2500         34.1320       -999.2500       3401.2009       -999.2500       -999.2500          0.0735
 2723.3000       -999.2500         34.1320       -999.2500       3401.2009       -999.2500       -999.2500          0.0735
 2723.4001       -999.2500         34.1320       -999.2500       3401.2009       -999.2500       -999.2500          0.0735
 2723.5000       -999.2500         34.1320       -999.2500       3401.2009       -999.2500       -999.2500          0.0735
 2723.6001       -999.2500         34.1320       -999.2500       3401.2009       -999.2500       -999.2500          0.0735
 2723.7000       -999.2500         34.1320       -999.2500       3401.2009       -999.2500       -999.2500          0.0735
 2723.8000       -999.2500         34.1320       -999.2500       3401.2009       -999.2500       -999.2500          0.0735
 2723.9001       -999.2500         34.1320       -999.2500       3401.2009       -999.2500       -999.2500          0.0735
 2724.0000       -999.2500         34.1320       -999.2500       3401.2009       -999.2500       -999.2500          0.0735
 2724.1001       -999.2500         34.1320       -999.2500       3401.2009       -999.2500       -999.2500          0.0735
 2724.2000       -999.2500         34.1320       -999.2500       3401.2009       -999.2500       -999.2500          0.0735
 2724.3000       -999.2500         34.1320       -999.2500       3401.2009       -999.2500       -999.2500          0.0735
 2724.4001       -999.2500         34.1320       -999.2500       3401.2009       -999.2500       -999.2500          0.0735
 2724.5000       -999.2500         34.1320       -999.2500       3401.2009       -999.2500       -999.2500          0.0735
 2724.6001       -999.2500         34.1320       -999.2500       3401.2009       -999.2500       -999.2500          0.0735
 2724.7000       -999.2500         34.1320       -999.2500       3401.2009       -999.2500       -999.2500          0.0735
 2724.8000       -999.2500         34.1320       -999.2500       3401.2009       -999.2500       -999.2500          0.0735
 2724.9001       -999.2500         34.1320       -999.2500       3401.2009       -999.2500       -999.2500          0.0735
 2725.0000          2.6443         34.1320          0.4126       3401.2009          0.0001          1.0000          0.0735
 2725.1001          2.6514         34.0397          0.4195       3361.5781          0.0001          1.0000          0.0703
 2725.2000          2.6471         34.4553          0.4362       3245.8784          0.0001          1.0000          0.0847
 2725.3000          2.6317         35.3142          0.4332       3130.4563          0.0001          1.0000          0.1143
 2725.4001          2.6226         36.3318          0.4268       3066.3188          0.0001          1.0000          0.1494
 2725.5000          2.6186         36.9859          0.4360       3060.3608          0.0001          1.0000          0.1719
 2725.6001          2.6129         36.7273          0.4279       3068.6953          0.0001          1.0000          0.1630
 2725.7000          2.6105         36.0993          0.4291       3052.7715          0.0001          1.0000          0.1414
 2725.8000          2.6058         35.8961          0.4236       3026.7822          0.0001          1.0000          0.1343
 2725.9001          2.5956         35.8951          0.4243       2989.9116          0.0001          1.0000          0.1343
 2726.0000          2.5935         35.4805          0.4383       2960.9338          0.0001          1.0000          0.1200
 2726.1001          2.5737         34.4369          0.4465       2953.2795          0.0001          1.0000          0.0840
 2726.2000          2.5638         33.6333          0.4466       2931.3865          0.0001          1.0000          0.0563
 2726.3000          2.5508         33.9381          0.4549       2913.3035          0.0001          1.0000          0.0668
 2726.4001          2.5244         35.1048          0.4452       2907.3103          0.0001          0.9978          0.1071
 2726.5000          2.5051         36.3117          0.4462       2912.1929          0.0137          0.0885          0.1487
 2726.6001          2.4954         37.1799          0.4445       2942.4939          0.0235          0.0516          0.1786
 2726.7000          2.4909         37.6601          0.4412       2976.4607          0.0283          0.0428          0.1952
 2726.8000          2.4939         37.4939          0.4354       2996.0249          0.0257          0.0472          0.1894
 2726.9001          2.4832         36.7242          0.4337       2994.3586          0.0297          0.0408          0.1629
 2727.0000          2.4855         35.4712          0.4249       3007.4148          0.0233          0.0520          0.1197
 2727.1001          2.4901         33.6888          0.4201       3044.6509          0.0133          0.0910          0.0582
 2727.2000          2.4923         32.1187          0.4065       3109.1125          0.0057          0.2132          0.0041
 2727.3000          2.4958         31.1212          0.3999       3211.5142          0.0029          0.4220         -0.0303
 2727.4001          2.4884         30.6517          0.3983       3282.3459          0.0078          0.1550         -0.0464
 2727.5000          2.4862         31.2505          0.4048       3293.7178          0.0093          0.1307         -0.0258
 2727.6001          2.4729         32.4789          0.4226       3246.9502          0.0199          0.0608          0.0165
 2727.7000          2.4669         33.3101          0.4465       3145.7415          0.0271          0.0447          0.0452
 2727.8000          2.4635         33.7349          0.4533       3047.1528          0.0310          0.0391          0.0598
 2727.9001          2.4576         33.9483          0.4451       2983.3093          0.0357          0.0339          0.0671
 2728.0000          2.4549         34.3445          0.4304       2981.8682          0.0390          0.0311          0.0808
 2728.1001          2.4469         35.0187          0.4120       3033.5059          0.0469          0.0259          0.1041
 2728.2000          2.4505         35.1018          0.4034       3094.8875          0.0448          0.0270          0.1070
 2728.3000          2.4543         34.9725          0.4153       3134.8738          0.0418          0.0290          0.1025
