~VERSION INFORMATION
 VERS.                          2.0   : CWLS LOG ASCII STANDARD - VERSION 2.0
 WRAP.                          NO    : ONE LINE PER DEPTH STEP
#
~Well Information Section
#MNEM     .UNIT     DATA                DESCRIPTION
#-----    -----     --------            --------------
 STRT     .M        359.0000            : START DEPTH
 STOP     .M        3300.0000           : END DEPTH
 STEP     .M        0.1000              : INCREMENT DEPTH
 NULL     .         -999.2500           : NULL VALUE
 COMP     .                              :
 WELL     .         KTB-1               : WELL NAME
 EKB      .M        47.3000             : KELLY BUSHING ELEVATION
 EGL      .M        0.0000              : GROUND LEVEL ELEVATION
 EPD      .M        0.0000              : PERMANENT DATUM ELEVATION
 FLD      .                              :
 LOC      . X = 554114.2800 Y = 9205184.3100: WELL LOCATION
 PROV     .                              :
 SRVC     .                              :
 PROV     .                              :
 DATE     .                              :
 API      .                              :
#
~Curve Information Section
#MNEM     .UNIT               Curve #DESCRIPTION
#-----    -----               ----   --------------
 DEPTH    .M                  : 1     Name = Domain Curve - Type = DEPTH
 RHOB     .g/cc               : 2     Name = Density_1 - Type = Density
 GR       .gapi               : 3     Name = Gamma Ray_1 - Type = Gamma Ray
 NPHI     .v/v                : 4     Name = Neutron Porosity_1 - Type = Neutron Porosity
 DT       .m/s                : 5     Name = P-wave_1 - Type = P-wave
 PHIE  .fraction           : 6     Name = PHIE - Type = Porosity
 SW  .0.Sw               : 7     Name = SW - Type = Water Saturatio
 VCL  .fraction           : 8     Name = VCL - Type = Volumetric
~A (ASCII LOG DATA)
# ...
 3282.8000          2.5193         20.2877          0.0983       4245.6875          0.1118          1.0000          0.2021
 3282.9001          2.5104         20.3450          0.0995       4392.1528          0.1172          1.0000          0.2035
 3283.0000          2.4941         20.3832          0.1001       4462.3120          0.1270          1.0000          0.2045
 3283.1001          2.4702         20.4502          0.1007       4421.6592          0.1415          1.0000          0.2061
 3283.2000          2.4622         20.5162          0.1008       4380.3296          0.1463          1.0000          0.2077
 3283.3000          2.4556         20.4648          0.1015       4452.0659          0.1503          1.0000          0.2065
 3283.4001          2.4550         20.3683          0.1025       4601.8325          0.1507          1.0000          0.2041
 3283.5000          2.4627         20.4109          0.1032       4815.2798          0.1460          1.0000          0.2051
 3283.6001          2.4565         20.6656          0.1047       4991.4761          0.1497          1.0000          0.2114
 3283.7000          2.4606         20.9052          0.1065       5047.9541          0.1471          1.0000          0.2172
 3283.8000          2.4556         20.7218          0.1096       5071.5557          0.1502          1.0000          0.2127
 3283.9001          2.4536         20.3157          0.1126       5064.1265          0.1516          1.0000          0.2028
 3284.0000          2.4543         20.2233          0.1173       5034.0723          0.1512          1.0000          0.2006
 3284.1001          2.4522         20.3827          0.1201       5016.4253          0.1524          1.0000          0.2045
 3284.2000          2.4451         20.4471          0.1209       4983.6816          0.1567          1.0000          0.2060
 3284.3000          2.4340         20.2017          0.1205       4964.9941          0.1635          1.0000          0.2000
 3284.4001          2.4268         19.7994          0.1211       4966.4297          0.1681          1.0000          0.1902
 3284.5000          2.4214         19.6169          0.1223       4957.8628          0.1714          1.0000          0.1858
 3284.6001          2.4152         19.6071          0.1259       4917.5410          0.1752          1.0000          0.1855
 3284.7000          2.4115         19.4562          0.1387       4838.2407          0.1775          1.0000          0.1819
 3284.8000          2.4099         19.1425          0.1439       4740.8037          0.1786          1.0000          0.1742
 3284.9001          2.4150         19.0479          0.1457       4658.1064          0.1756          1.0000          0.1719
 3285.0000          2.4129         19.3409          0.1465       4608.4272          0.1767          1.0000          0.1790
 3285.1001          2.4065         19.7264          0.1455       4592.7822          0.1804          1.0000          0.1884
 3285.2000          2.3951         19.9410          0.1474       4598.6030          0.1872          1.0000          0.1937
 3285.3000          2.3877         19.9721          0.1490       4600.8936          0.1917          1.0000          0.1944
 3285.4001          2.3844         19.9160          0.1518       4576.3403          0.1937          1.0000          0.1931
 3285.5000          2.3816         19.8446          0.1547       4513.4023          0.1954          1.0000          0.1913
 3285.6001          2.3764         19.8298          0.1563       4425.8516          0.1986          1.0000          0.1910
 3285.7000          2.3756         19.8040          0.1566       4348.3906          0.1991          1.0000          0.1903
 3285.8000          2.3749         19.6256          0.1582       4297.6309          0.1996          1.0000          0.1860
 3285.9001          2.3819         19.4546          0.1576       4287.6279          0.1954          1.0000          0.1818
 3286.0000          2.3815         19.4565          0.1581       4293.6411          0.1957          1.0000          0.1819
 3286.1001          2.3802         19.5436          0.1566       4285.1963          0.1964          1.0000          0.1840
 3286.2000          2.3838         19.5578          0.1567       4269.6851          0.1942          1.0000          0.1843
 3286.3000          2.3797         19.2879          0.1562       4250.5776          0.1969          1.0000          0.1778
 3286.4001          2.3804         18.9910          0.1568       4256.0547          0.1966          1.0000          0.1705
 3286.5000          2.3775         19.0976          0.1568       4292.0146          0.1983          1.0000          0.1731
 3286.6001          2.3781         19.4005          0.1570       4333.3125          0.1978          1.0000          0.1805
 3286.7000          2.3714         19.6769          0.1555       4371.2842          0.2017          1.0000          0.1872
 3286.8000          2.3699         19.9751          0.1545       4390.1025          0.2025          1.0000          0.1945
 3286.9001          2.3609         20.2589          0.1548       4397.7163          0.2078          1.0000          0.2014
 3287.0000          2.3588         20.5664          0.1546       -999.2500       -999.2500       -999.2500          0.2089
 3287.1001          2.3568         20.5664          0.1551       -999.2500       -999.2500       -999.2500          0.2089
 3287.2000          2.3526       -999.2500          0.1554       -999.2500       -999.2500       -999.2500       -999.2500
 3287.3000          2.3474       -999.2500          0.1554       -999.2500       -999.2500       -999.2500       -999.2500
 3287.4001          2.3453       -999.2500          0.1565       -999.2500       -999.2500       -999.2500       -999.2500
 3287.5000          2.3459       -999.2500          0.1553       -999.2500       -999.2500       -999.2500       -999.2500
 3287.6001          2.3465       -999.2500          0.1546       -999.2500       -999.2500       -999.2500       -999.2500
 3287.7000          2.3412       -999.2500          0.1532       -999.2500       -999.2500       -999.2500       -999.2500
 3287.8000          2.3348       -999.2500          0.1525       -999.2500       -999.2500       -999.2500       -999.2500
 3287.9001          2.3321       -999.2500          0.1530       -999.2500       -999.2500       -999.2500       -999.2500
 3288.0000          2.3345       -999.2500          0.1529       -999.2500       -999.2500       -999.2500       -999.2500
 3288.1001          2.3360       -999.2500          0.1532       -999.2500       -999.2500       -999.2500       -999.2500
 3288.2000          2.3384       -999.2500          0.1534       -999.2500       -999.2500       -999.2500       -999.2500
 3288.3000          2.3483       -999.2500          0.1534       -999.2500       -999.2500       -999.2500       -999.2500
 3288.4001          2.3558       -999.2500          0.1541       -999.2500       -999.2500       -999.2500       -999.2500
 3288.5000          2.3657       -999.2500          0.1549       -999.2500       -999.2500       -999.2500       -999.2500
 3288.6001          2.3735       -999.2500          0.1556       -999.2500       -999.2500       -999.2500       -999.2500
 3288.7000          2.3778       -999.2500          0.1563       -999.2500       -999.2500       -999.2500       -999.2500
 3288.8000          2.3787       -999.2500          0.1561       -999.2500       -999.2500       -999.2500       -999.2500
 3288.9001          2.3774       -999.2500          0.1561       -999.2500       -999.2500       -999.2500       -999.2500
 3289.0000          2.3757       -999.2500          0.1558       -999.2500       -999.2500       -999.2500       -999.2500
 3289.1001          2.3764       -999.2500          0.1550       -999.2500       -999.2500       -999.2500       -999.2500
 3289.2000          2.3876       -999.2500          0.1554       -999.2500       -999.2500       -999.2500       -999.2500
 3289.3000          2.3864       -999.2500          0.1544       -999.2500       -999.2500       -999.2500       -999.2500
