~VERSION INFORMATION
 VERS.                          2.0   : CWLS LOG ASCII STANDARD - VERSION 2.0
 WRAP.                          NO    : ONE LINE PER DEPTH STEP
#
~Well Information Section
#MNEM     .UNIT     DATA                DESCRIPTION
#-----    -----     --------            --------------
 STRT     .M        359.0000            : START DEPTH
 STOP     .M        3300.0000           : END DEPTH
 STEP     .M        0.1000              : INCREMENT DEPTH
 NULL     .         -999.2500           : NULL VALUE
 COMP     .                              :
 WELL     .         KTB-1               : WELL NAME
 EKB      .M        47.3000             : KELLY BUSHING ELEVATION
 EGL      .M        0.0000              : GROUND LEVEL ELEVATION
 EPD      .M        0.0000              : PERMANENT DATUM ELEVATION
 FLD      .                              :
 LOC      . X = 554114.2800 Y = 9205184.3100: WELL LOCATION
 PROV     .                              :
 SRVC     .                              :
 PROV     .                              :
 DATE     .                              :
 API      .                              :
#
~Curve Information Section
#MNEM     .UNIT               Curve #DESCRIPTION
#-----    -----               ----   --------------
 DEPTH    .M                  : 1     Name = Domain Curve - Type = DEPTH
 RHOB     .g/cc               : 2     Name = Density_1 - Type = Density
 GR       .gapi               : 3     Name = Gamma Ray_1 - Type = Gamma Ray
 NPHI     .v/v                : 4     Name = Neutron Porosity_1 - Type = Neutron Porosity
 DT       .m/s                : 5     Name = P-wave_1 - Type = P-wave
 PHIE  .fraction           : 6     Name = PHIE - Type = Porosity
 SW  .0.Sw               : 7     Name = SW - Type = Water Saturatio
 VCL  .fraction           : 8     Name = VCL - Type = Volumetric
~A (ASCII LOG DATA)
# ...
 3210.2000          2.3679         19.5581          0.1630       4513.1284          0.2039          1.0000          0.1843
 3210.3000          2.3655         19.2071          0.1637       4519.6934          0.2055          1.0000          0.1758
 3210.4001          2.3600         19.1982          0.1633       4500.4561          0.2088          1.0000          0.1756
 3210.5000          2.3513         19.3457          0.1634       4479.4150          0.2141          1.0000          0.1792
 3210.6001          2.3496         19.5581          0.1620       4462.3184          0.2150          1.0000          0.1843
 3210.7000          2.3502         19.9460          0.1613       4460.1182          0.2144          1.0000          0.1938
 3210.8000          2.3485         20.2877          0.1614       4472.1851          0.2153          1.0000          0.2021
 3210.9001          2.3505         20.6403          0.1623       4471.8647          0.2139          1.0000          0.2107
 3211.0000          2.3499         21.3405          0.1623       4458.9761          0.2140          1.0000          0.2278
 3211.1001          2.3488         22.4950          0.1605       4439.1299          0.2141          1.0000          0.2560
 3211.2000          2.3695         23.7788          0.1555       4418.4419          0.2010          1.0000          0.2873
 3211.3000          2.3880         24.7947          0.1494       4419.5498          0.1893          1.0000          0.3121
 3211.4001          2.4023         25.3488          0.1426       4456.3750          0.1804          1.0000          0.3256
 3211.5000          2.4169         25.3119          0.1319       4525.6665          0.1716          1.0000          0.3247
 3211.6001          2.4341         24.5454          0.1242       4627.9985          0.1615          1.0000          0.3060
 3211.7000          2.4512         23.0861          0.1180       4739.8521          0.1518          1.0000          0.2704
 3211.8000          2.4552         21.3590          0.1187       4819.6357          0.1502          1.0000          0.2283
 3211.9001          2.4507         19.7578          0.1214       4849.8091          0.1536          1.0000          0.1892
 3212.0000          2.4428         18.3667          0.1214       4817.0610          0.1590          1.0000          0.1553
 3212.1001          2.4224         17.2214          0.1236       4735.7354          0.1719          1.0000          0.1274
 3212.2000          2.4125         16.5380          0.1233       4653.7051          0.1782          1.0000          0.1107
 3212.3000          2.4019         16.2978          0.1258       4577.6416          0.1848          1.0000          0.1048
 3212.4001          2.4006         16.3254          0.1277       4539.0337          0.1856          1.0000          0.1055
 3212.5000          2.3959         16.2794          0.1278       4529.0825          0.1884          1.0000          0.1044
 3212.6001          2.3977         16.0485          0.1307       4514.7998          0.1874          1.0000          0.0987
 3212.7000          2.4017         16.0947          0.1332       4510.0098          0.1850          1.0000          0.0999
 3212.8000          2.4030         16.4179          0.1359       4491.6069          0.1841          1.0000          0.1078
 3212.9001          2.4030         16.7512          0.1393       4480.0337          0.1839          1.0000          0.1159
 3213.0000          2.4074         17.0736          0.1412       4477.2041          0.1811          1.0000          0.1237
 3213.1001          2.4094         17.3045          0.1412       4486.4365          0.1798          1.0000          0.1294
 3213.2000          2.4124         17.4615          0.1442       4505.9292          0.1779          1.0000          0.1332
 3213.3000          2.4089         17.3784          0.1474       4529.6479          0.1800          1.0000          0.1312
 3213.4001          2.3977         16.8695          0.1497       4560.4595          0.1871          1.0000          0.1188
 3213.5000          2.3816         16.5010          0.1552       4558.3091          0.1970          1.0000          0.1098
 3213.6001          2.3708         16.5934          0.1607       4521.2017          0.2035          1.0000          0.1120
 3213.7000          2.3548         16.8797          0.1664       4447.5830          0.2131          1.0000          0.1190
 3213.8000          2.3428         17.1013          0.1728       4365.9678          0.2202          1.0000          0.1244
 3213.9001          2.3324         17.1757          0.1747       4309.1582          0.2265          1.0000          0.1262
 3214.0000          2.3290         17.3784          0.1776       4269.8882          0.2285          1.0000          0.1312
 3214.1001          2.3214         17.8125          0.1817       4248.2139          0.2329          1.0000          0.1418
 3214.2000          2.3179         18.2281          0.1817       4227.9780          0.2348          1.0000          0.1519
 3214.3000          2.3182         18.2281          0.1835       4212.3301          0.2346          1.0000          0.1519
 3214.4001          2.3152         18.1178          0.1841       4213.5664          0.2365          1.0000          0.1492
 3214.5000          2.3203         18.3390          0.1809       4226.3599          0.2333          1.0000          0.1546
 3214.6001          2.3235         18.6160          0.1797       4242.9272          0.2312          1.0000          0.1614
 3214.7000          2.3347         18.8931          0.1781       4253.4185          0.2243          1.0000          0.1681
 3214.8000          2.3427         19.1148          0.1754       4269.9302          0.2194          1.0000          0.1735
 3214.9001          2.3521         19.5044          0.1728       4288.8975          0.2135          1.0000          0.1830
 3215.0000          2.3603         20.1953          0.1703       4305.8633          0.2082          1.0000          0.1999
 3215.1001          2.3736         20.6109          0.1646       4331.7666          0.2000          1.0000          0.2100
 3215.2000          2.3799         20.7495          0.1582       4375.0234          0.1961          1.0000          0.2134
 3215.3000          2.3931         20.7772          0.1519       4452.8784          0.1881          1.0000          0.2141
 3215.4001          2.3996         20.7777          0.1452       4596.3950          0.1841          1.0000          0.2141
 3215.5000          2.4110         20.9711          0.1380       4776.7329          0.1771          1.0000          0.2188
 3215.6001          2.4123         20.8326          0.1352       4937.5122          0.1764          1.0000          0.2154
 3215.7000          2.4158         20.5555          0.1372       5035.0288          0.1744          1.0000          0.2087
 3215.8000          2.4143         20.6941          0.1360       5047.1182          0.1752          1.0000          0.2121
 3215.9001          2.4230         20.9441          0.1344       5004.9995          0.1699          1.0000          0.2181
 3216.0000          2.4304         21.2482          0.1338       4954.2852          0.1652          1.0000          0.2256
 3216.1001          2.4280         21.2759          0.1338       4924.7788          0.1667          1.0000          0.2262
 3216.2000          2.4207         20.8880          0.1317       4906.7583          0.1713          1.0000          0.2168
 3216.3000          2.4178         20.6386          0.1327       4893.4609          0.1732          1.0000          0.2107
 3216.4001          2.4178         20.4438          0.1344       4879.8667          0.1732          1.0000          0.2060
 3216.5000          2.4236         20.0845          0.1339       4866.5371          0.1699          1.0000          0.1972
 3216.6001          2.4248         19.7520          0.1349       4862.2446          0.1693          1.0000          0.1891
 3216.7000          2.4331         19.9183          0.1371       4864.8828          0.1642          1.0000          0.1931
